~Version Information Section
VERS.          2.0                                     : CWLS LOG ASCII Standard
WRAP.          NO                                      : One line per depth step
~Well Information Section
STRT.M         1250.0000                               : Start Depth
STOP.M         1650.0000                               : Stop Depth
STEP.M         0.2500                                  : Step
NULL.          -999.0000                               : Null Value
COMP.                                                  : Company
WELL.          DO-974                                  : Well
FLD .          BANANO                                  : Field
LOC .                                                  : Location
LOC1.                                                  : Location 1
CTRY.                                                  : Country
STAT.                                                  : State
CNTY.                                                  : County
API .          23191                                   : API Number
SECT.                                                  : Section
TOWN.                                                  : Township
RNGE.                                                  : Range
PDAT.                                                  : Perm Datum
EPD .                                                  : Elevation
LMF .                                                  : Log Measured From
DMF .                                                  : Drill Measured From
APD .                                                  : Above Perm Datum
EKB .                                                  : Elev-Kelly Bushing.
EDF .                                                  : Elev-Drill Floor
EGL .                                                  : Elev-Ground Level
SRVC.          Oil&Gas,Inc.                            : Service Company
DATE.          13 Jun 2015 @ 17:27                     : Date
~Curve Information Section
DEPTH.M                                                : 1
PCNSS.                                                 : 2
PDSS.dec                                               : 3
PERM.                                                  : 4
PHIDEDIT.                                              : 5
PHIE.dec                                               : 6
PHIND.dec                                              : 7
PSSS.pu                                                : 8
RHOB.g/cm3                                             : 9
SP.UNKNOWN                                             : 10
SPBL.MV                                                : 11
SW.dec                                                 : 12
SWBAV.                                                 : 13
T.dec                                                  : 14
VCLAY.                                                 : 15
VSILT.                                                 : 16
VSS.                                                   : 17
W.                                                     : 18
~A Log Data Section
# ...
   1280.75     0.3150     0.1036     0.0010     0.1036     0.0724     0.2256     0.2531     2.5060   -31.4630    -1.7490     1.0000     1.0000   136.6367     0.6381     1.0000     0.3619     2.0054 
   1281.00     0.3200     0.1190     0.0010     0.1190     0.0694     0.2325     0.2598     2.4800   -31.9870    -2.2898     1.0000     0.9838   136.6466     0.6530     1.0000     0.3470     1.9946 
   1281.25     0.3210     0.1393     0.0010     0.1393     0.0661     0.2384     0.2684     2.4460   -32.3470    -2.6666     1.0000     0.9373   136.6565     0.6694     1.0000     0.3306     1.9865 
   1281.50     0.3040     0.1446     0.0010     0.1446     0.0648     0.2296     0.2655     2.4370   -32.1090    -2.4455     0.9799     0.9337   136.6664     0.6759     0.9935     0.3241     1.9826 
   1281.75     0.2700     0.1327     0.0010     0.1327     0.0661     0.2049     0.2497     2.4570   -31.8460    -2.1993     0.9347     0.9303   136.6763     0.6696     0.9784     0.3304     1.9768 
   1282.00     0.2510     0.1179     0.0010     0.1179     0.0649     0.1886     0.2400     2.4820   -31.8580    -2.2281     0.8924     0.7678   136.6862     0.6753     0.9651     0.3247     1.9831 
   1282.25     0.2910     0.1095     0.0053     0.1095     0.0865     0.2126     0.2402     2.4960   -32.5930    -2.9799     0.8007     0.5676   136.6962     0.5676     0.9138     0.4324     1.9034 
   1282.50     0.2840     0.1065     0.0040     0.1065     0.0845     0.2075     0.2429     2.5010   -33.3180    -3.7218     0.8152     0.5774   136.7061     0.5774     0.9219     0.4226     1.8967 
   1282.75     0.2740     0.1137     0.0010     0.1137     0.0730     0.2029     0.2445     2.4890   -33.7540    -4.1746     0.9003     0.6348   136.7160     0.6348     0.9636     0.3652     1.9391 
   1283.00     0.3060     0.1238     0.0010     0.1238     0.0622     0.2253     0.2522     2.4720   -33.9140    -4.3514     0.9456     0.7133   136.7259     0.6892     0.9831     0.3108     1.9798 
   1283.25     0.2930     0.1226     0.0010     0.1226     0.0677     0.2171     0.2665     2.4740   -34.0960    -4.5502     0.9769     0.7600   136.7358     0.6614     0.9922     0.3386     1.9877 
   1283.50     0.2830     0.1238     0.0010     0.1238     0.0699     0.2111     0.2660     2.4720   -34.3270    -4.7980     0.9788     0.7641   136.7457     0.6504     0.9926     0.3496     1.9845 
   1283.75     0.2950     0.1226     0.0010     0.1226     0.0661     0.2183     0.2513     2.4740   -34.6000    -5.0879     0.9643     0.7414   136.7557     0.6695     0.9882     0.3305     1.9731 
   1284.00     0.2960     0.1149     0.0010     0.1149     0.0681     0.2170     0.2275     2.4870   -35.0170    -5.5217     0.9204     0.6595   136.7656     0.6595     0.9729     0.3405     1.9569 
   1284.25     0.2780     0.1161     0.0011     0.1161     0.0728     0.2060     0.2200     2.4850   -35.4140    -5.9355     0.8611     0.6362   136.7755     0.6362     0.9495     0.3638     1.9375 
   1284.50     0.2690     0.1262     0.0062     0.1262     0.0843     0.2026     0.2089     2.4680   -35.3190    -5.8573     0.7786     0.5784   136.7854     0.5784     0.9066     0.4216     1.8958 
   1284.75     0.2560     0.1155     0.0739     0.1155     0.1038     0.1914     0.1935     2.4860   -34.9240    -5.4792     0.6076     0.4809   136.7953     0.4809     0.7963     0.5191     1.8695 
   1285.00     0.2560     0.0994     0.0242     0.0994     0.0911     0.1877     0.2021     2.5130   -34.5220    -5.0940     0.6760     0.4888   136.8052     0.4888     0.8344     0.5112     1.8997 
   1285.25     0.2650     0.1000     0.0173     0.1000     0.0912     0.1938     0.2168     2.5120   -34.0980    -4.6868     0.7116     0.5160   136.8152     0.5160     0.8604     0.4840     1.9019 
   1285.50     0.2860     0.0958     0.0053     0.0958     0.0853     0.2062     0.2180     2.5190   -33.6840    -4.2896     0.7959     0.5735   136.8251     0.5735     0.9130     0.4265     1.9252 
   1285.75     0.2670     0.0952     0.0035     0.0952     0.0832     0.1940     0.1883     2.5200   -33.4130    -4.0354     0.8213     0.5700   136.8350     0.5700     0.9231     0.4300     1.9253 
   1286.00     0.2470     0.1054     0.0012     0.1054     0.0778     0.1830     0.2068     2.5030   -33.2530    -3.8923     0.8742     0.6108   136.8449     0.6108     0.9510     0.3892     1.9325 
   1286.25     0.2880     0.1012     0.0010     0.1012     0.0686     0.2087     0.2396     2.5100   -32.6310    -3.2871     0.9226     0.6570   136.8548     0.6570     0.9734     0.3430     1.9794 
   1286.50     0.3040     0.1000     0.0010     0.1000     0.0645     0.2182     0.2569     2.5120   -31.5040    -2.1769     0.9540     0.7806   136.8647     0.6777     0.9852     0.3223     2.0052 
   1286.75     0.3130     0.1065     0.0010     0.1065     0.0657     0.2252     0.2629     2.5010   -30.9440    -1.6337     0.9802     0.8332   136.8746     0.6716     0.9935     0.3284     2.0024 
   1287.00     0.3180     0.0952     0.0010     0.0952     0.0659     0.2252     0.2622     2.5200   -31.0900    -1.7966     0.9836     0.7889   136.8846     0.6704     0.9946     0.3296     2.0116 
   1287.25     0.3150     0.0756     0.0010     0.0756     0.0666     0.2187     0.2435     2.5530   -31.1880    -1.9114     0.9766     0.7508   136.8945     0.6669     0.9922     0.3331     2.0268 
   1287.50     0.2870     0.0708     0.0010     0.0708     0.0622     0.2010     0.2365     2.5610   -31.1100    -1.8502     0.9874     0.7345   136.9044     0.6437     0.9955     0.3563     2.0291 
   1287.75     0.2800     0.0869     0.0010     0.0869     0.0722     0.2003     0.2424     2.5340   -30.7360    -1.4930     0.9705     0.7443   136.9143     0.6388     0.9893     0.3612     2.0133 
   1288.00     0.2890     0.0911     0.0010     0.0911     0.0742     0.2069     0.2793     2.5270   -30.0320    -0.8059     1.0000     0.8619   136.9242     0.6289     1.0000     0.3711     2.0111 
   1288.25     0.3090     0.0839     0.0010     0.0839     0.0756     0.2172     0.2827     2.5390   -29.2010     0.0083     1.0000     0.9034   136.9341     0.6221     1.0000     0.3779     2.0211 
   1288.50     0.3260     0.0881     0.0010     0.0881     0.0751     0.2280     0.2800     2.5320   -28.5780     0.6145     1.0000     0.9342   136.9440     0.6246     1.0000     0.3754     2.0200 
   1288.75     0.3220     0.0893     0.0010     0.0893     0.0776     0.2260     0.2673     2.5300   -28.1390     1.0367     1.0000     0.9612   136.9540     0.6120     1.0000     0.3880     2.0176 
   1289.00     0.3160     0.0810     0.0010     0.0810     0.0799     0.2206     0.2461     2.5440   -28.0540     1.1049     1.0000     0.9606   136.9639     0.6004     1.0000     0.3996     2.0239 
   1289.25     0.3120     0.0792     0.0010     0.0792     0.0781     0.2178     0.2474     2.5470   -28.4000     0.7420     1.0000     0.9379   136.9738     0.5995     1.0000     0.4005     2.0250 
   1289.50     0.3100     0.0851     0.0010     0.0851     0.0812     0.2181     0.2564     2.5370   -28.7680     0.3572     1.0000     0.9514   136.9837     0.5941     1.0000     0.4059     2.0179 
   1289.75     0.3120     0.1077     0.0010     0.1077     0.0812     0.2249     0.2730     2.4990   -28.9480     0.1604     1.0000     0.9897   136.9936     0.5940     1.0000     0.4060     1.9968 
   1290.00     0.3230     0.1179     0.0010     0.1179     0.0800     0.2339     0.2749     2.4820   -28.8210     0.2706     1.0000     1.0000   137.0035     0.5999     1.0000     0.4001     1.9913 
   1290.25     0.3570     0.1107     0.0010     0.1107     0.0749     0.2509     0.2616     2.4940   -28.5880     0.4867     1.0000     1.0000   137.0135     0.6257     1.0000     0.3743     2.0051 
   1290.50     0.3400     0.1048     0.0010     0.1048     0.0770     0.2401     0.2401     2.5040   -28.3780     0.6799     1.0000     0.9847   137.0234     0.6150     1.0000     0.3850     2.0067 
   1290.75     0.3110     0.1006     0.0010     0.1006     0.0810     0.2225     0.2348     2.5110   -28.1900     0.8511     1.0000     0.9392   137.0333     0.5950     1.0000     0.4050     2.0032 
