~Version Information Section
VERS.          2.0                                     : CWLS LOG ASCII Standard
WRAP.          NO                                      : One line per depth step
~Well Information Section
STRT.M         1250.0000                               : Start Depth
STOP.M         1650.0000                               : Stop Depth
STEP.M         0.2500                                  : Step
NULL.          -999.0000                               : Null Value
COMP.                                                  : Company
WELL.          DO-974                                  : Well
FLD .          BANANO                                  : Field
LOC .                                                  : Location
LOC1.                                                  : Location 1
CTRY.                                                  : Country
STAT.                                                  : State
CNTY.                                                  : County
API .          23191                                   : API Number
SECT.                                                  : Section
TOWN.                                                  : Township
RNGE.                                                  : Range
PDAT.                                                  : Perm Datum
EPD .                                                  : Elevation
LMF .                                                  : Log Measured From
DMF .                                                  : Drill Measured From
APD .                                                  : Above Perm Datum
EKB .                                                  : Elev-Kelly Bushing.
EDF .                                                  : Elev-Drill Floor
EGL .                                                  : Elev-Ground Level
SRVC.          Oil&Gas,Inc.                            : Service Company
DATE.          13 Jun 2015 @ 17:27                     : Date
~Curve Information Section
DEPTH.M                                                : 1
PCNSS.                                                 : 2
PDSS.dec                                               : 3
PERM.                                                  : 4
PHIDEDIT.                                              : 5
PHIE.dec                                               : 6
PHIND.dec                                              : 7
PSSS.pu                                                : 8
RHOB.g/cm3                                             : 9
SP.UNKNOWN                                             : 10
SPBL.MV                                                : 11
SW.dec                                                 : 12
SWBAV.                                                 : 13
T.dec                                                  : 14
VCLAY.                                                 : 15
VSILT.                                                 : 16
VSS.                                                   : 17
W.                                                     : 18
~A Log Data Section
# ...
   1383.25     0.3160     0.2488     0.0010     0.2488     0.0605     0.2686     0.2850     2.2620   -35.0390   -10.6035     1.0000     0.9450   140.7019     0.6973     1.0000     0.3027     2.0117 
   1383.50     0.3060     0.2893     0.0010     0.2893     0.0596     0.2888     0.2992     2.1940   -35.4490   -10.9899     1.0000     1.0000   140.7118     0.7019     1.0000     0.2981     2.0259 
   1383.75     0.3310     0.3071     0.0010     0.2943     0.0598     0.3090     0.2995     2.1640   -35.4330   -10.9502     1.0000     1.0000   140.7217     0.7011     1.0000     0.2989     2.0401 
   1384.00     0.3730     0.3208     0.0010     0.2802     0.0599     0.3318     0.2855     2.1410   -35.3220   -10.8156     1.0000     1.0000   140.7316     0.7004     1.0000     0.2996     2.0570 
   1384.25     0.3820     0.3274     0.0010     0.2779     0.0621     0.3391     0.2832     2.1300   -35.2200   -10.6900     1.0000     1.0000   140.7416     0.6893     1.0000     0.3107     2.0627 
   1384.50     0.3830     0.3167     0.0010     0.2531     0.0650     0.3349     0.2585     2.1480   -35.0150   -10.4614     1.0000     1.0000   140.7515     0.6751     1.0000     0.3249     2.0584 
   1384.75     0.3780     0.3107     0.0010     0.2375     0.0665     0.3295     0.2431     2.1580   -34.5940   -10.0168     1.0000     1.0000   140.7614     0.6676     1.0000     0.3324     2.0529 
   1385.00     0.3500     0.3167     0.0010     0.2268     0.0663     0.3215     0.2324     2.1480   -33.8950    -9.2942     1.0000     1.0000   140.7713     0.6686     1.0000     0.3314     2.0465 
   1385.25     0.3180     0.3232     0.0010     0.2128     0.0636     0.3155     0.2186     2.1370   -33.2720    -8.6475     1.0000     1.0000   140.7812     0.6819     1.0000     0.3181     2.0436 
   1385.50     0.3170     0.2714     0.0010     0.2030     0.0659     0.2806     0.2088     2.2240   -33.3680    -8.7199     1.0000     1.0000   140.7911     0.6703     1.0000     0.3297     2.0151 
   1385.75     0.3320     0.2583     0.0010     0.1998     0.0588     0.2820     0.2057     2.2460   -33.8280    -9.1563     1.0000     1.0000   140.8010     0.7062     1.0000     0.2938     2.0215 
   1386.00     0.3690     0.2720     0.0010     0.2004     0.0464     0.3089     0.2062     2.2230   -34.3230    -9.6277     0.9049     1.0000   140.8110     0.7678     0.9779     0.2322     2.0275 
   1386.25     0.3010     0.2518     0.0010     0.2078     0.0449     0.2623     0.2136     2.2570   -34.8800   -10.1611     0.8206     0.8369   140.8209     0.7754     0.9597     0.2246     1.9350 
   1386.50     0.2280     0.1756     0.0041     0.1756     0.0729     0.1880     0.2181     2.3850   -35.3140   -10.5714     0.7642     0.6355   140.8308     0.6355     0.9141     0.3645     1.8428 
   1386.75     0.2050     0.1190     0.2086     0.1190     0.1024     0.1557     0.2159     2.4800   -34.8460   -10.0798     0.4726     0.4056   140.8407     0.4056     0.6865     0.5944     1.8792 
   1387.00     0.2210     0.1042     0.1781     0.1042     0.1009     0.1644     0.2106     2.5050   -33.7930    -9.0032     0.4851     0.3320   140.8506     0.3320     0.6560     0.6680     1.8785 
   1387.25     0.2370     0.1107     0.2020     0.1107     0.1015     0.1772     0.2032     2.4940   -33.5300    -8.7166     0.4723     0.4232   140.8605     0.4232     0.6956     0.5768     1.8688 
   1387.50     0.2580     0.1208     0.0550     0.1208     0.0943     0.1940     0.2003     2.4770   -33.9280    -9.0910     0.5972     0.5283   140.8705     0.5283     0.8100     0.4717     1.8604 
   1387.75     0.2650     0.1315     0.1172     0.1315     0.1024     0.2013     0.2059     2.4590   -34.1920    -9.3313     0.5448     0.4880   140.8804     0.4880     0.7669     0.5120     1.8556 
   1388.00     0.2330     0.1435     0.4144     0.1435     0.1152     0.1818     0.2042     2.4390   -33.4850    -8.6007     0.4463     0.4238   140.8903     0.4238     0.6809     0.5762     1.8443 
   1388.25     0.2410     0.1375     0.2183     0.1375     0.1084     0.1861     0.1735     2.4490   -32.5170    -7.6091     0.4956     0.4580   140.9002     0.4580     0.7266     0.5420     1.8503 
   1388.50     0.2450     0.0905     0.0220     0.0905     0.0807     0.1783     0.1768     2.5280   -32.0200    -7.0885     0.6315     0.5010   140.9101     0.5010     0.8161     0.4990     1.8884 
   1388.75     0.2380     0.0952     0.0210     0.0952     0.0816     0.1746     0.1875     2.5200   -32.0220    -7.0669     0.6424     0.5143   140.9200     0.5143     0.8263     0.4857     1.8865 
   1389.00     0.2730     0.1036     0.0609     0.1036     0.0972     0.1998     0.1659     2.5060   -31.9930    -7.0143     0.5993     0.4997   140.9299     0.4997     0.7995     0.5003     1.8777 
   1389.25     0.2840     0.1024     0.0327     0.1024     0.0942     0.2065     0.1445     2.5080   -31.6710    -6.6686     0.6569     0.5292   140.9399     0.5292     0.8385     0.4708     1.8815 
   1389.50     0.2820     0.1131     0.0342     0.1131     0.0954     0.2078     0.1225     2.4900   -31.2210    -6.1950     0.6581     0.5228   140.9498     0.5228     0.8368     0.4772     1.8759 
   1389.75     0.2220     0.1310     0.0689     0.1310     0.1020     0.1709     0.1472     2.4600   -31.0640    -6.0144     0.6077     0.4900   140.9597     0.4900     0.7999     0.5100     1.8770 
   1390.00     0.2210     0.1339     0.0402     0.1339     0.0977     0.1708     0.1800     2.4550   -31.0290    -5.9558     0.6503     0.5116   140.9696     0.5116     0.8292     0.4884     1.8762 
   1390.25     0.2680     0.1268     0.0040     0.1268     0.0787     0.2021     0.1869     2.4670   -31.0310    -5.9342     0.7939     0.6063   140.9795     0.6063     0.9189     0.3937     1.8758 
   1390.50     0.3210     0.2750     0.0010     0.1759     0.0384     0.2843     0.1820     2.2180   -30.9770    -5.8565     0.7735     0.8345   140.9894     0.8080     0.9565     0.1920     1.9109 
   1390.75     0.4160     0.3869     0.0010     0.1817     0.0286     0.3900     0.1877     2.0300   -30.8100    -5.6659     0.7511     0.9335   140.9993     0.8568     0.9644     0.1432     1.9498 
   1391.00     0.2880     0.2750     0.0010     0.1997     0.0614     0.2734     0.2055     2.2180   -30.4780    -5.3103     0.8333     0.6931   141.0093     0.6931     0.9488     0.3069     1.8663 
   1391.25     0.2840     0.1667     0.0059     0.1667     0.0799     0.2229     0.2137     2.4000   -30.0120    -4.8207     0.7800     0.6006   141.0192     0.6006     0.9061     0.3994     1.8469 
   1391.50     0.2680     0.1524     0.0248     0.1524     0.0899     0.2085     0.2015     2.4240   -29.5990    -4.3841     0.6985     0.5507   141.0291     0.5507     0.8503     0.4493     1.8530 
   1391.75     0.2630     0.1399     0.0569     0.1399     0.0969     0.2020     0.1966     2.4450   -29.3590    -4.1205     0.6344     0.5157   141.0390     0.5157     0.8091     0.4843     1.8609 
   1392.00     0.2590     0.1024     0.0031     0.1024     0.0698     0.1904     0.2042     2.5080   -29.3460    -4.0838     0.7748     0.6512   141.0489     0.6512     0.9215     0.3488     1.8836 
   1392.25     0.2570     0.0827     0.0012     0.0827     0.0545     0.1847     0.2093     2.5410   -29.5550    -4.2692     0.7712     0.7277   141.0588     0.7277     0.9377     0.2723     1.9228 
   1392.50     0.2600     0.0810     0.0025     0.0810     0.0680     0.1862     0.2085     2.5440   -29.8790    -4.5696     0.7847     0.5983   141.0688     0.5983     0.9135     0.4017     1.9042 
   1392.75     0.2690     0.0958     0.0034     0.0958     0.0697     0.1954     0.2024     2.5190   -30.1820    -4.8490     0.7648     0.6517   141.0787     0.6517     0.9181     0.3483     1.8844 
   1393.00     0.2710     0.1119     0.0034     0.1119     0.0692     0.2005     0.1879     2.4920   -30.3760    -5.0194     0.7613     0.6540   141.0886     0.6540     0.9174     0.3460     1.8715 
   1393.25     0.2680     0.1333     0.0275     0.1333     0.0871     0.2037     0.1872     2.4560   -30.3530    -4.9727     0.6876     0.5645   141.0985     0.5645     0.8437     0.4355     1.8594 
