~Version Information Section
VERS.          2.0                                     : CWLS LOG ASCII Standard
WRAP.          NO                                      : One line per depth step
~Well Information Section
STRT.M         1250.0000                               : Start Depth
STOP.M         1650.0000                               : Stop Depth
STEP.M         0.2500                                  : Step
NULL.          -999.0000                               : Null Value
COMP.                                                  : Company
WELL.          DO-974                                  : Well
FLD .          BANANO                                  : Field
LOC .                                                  : Location
LOC1.                                                  : Location 1
CTRY.                                                  : Country
STAT.                                                  : State
CNTY.                                                  : County
API .          23191                                   : API Number
SECT.                                                  : Section
TOWN.                                                  : Township
RNGE.                                                  : Range
PDAT.                                                  : Perm Datum
EPD .                                                  : Elevation
LMF .                                                  : Log Measured From
DMF .                                                  : Drill Measured From
APD .                                                  : Above Perm Datum
EKB .                                                  : Elev-Kelly Bushing.
EDF .                                                  : Elev-Drill Floor
EGL .                                                  : Elev-Ground Level
SRVC.          Oil&Gas,Inc.                            : Service Company
DATE.          13 Jun 2015 @ 17:27                     : Date
~Curve Information Section
DEPTH.M                                                : 1
PCNSS.                                                 : 2
PDSS.dec                                               : 3
PERM.                                                  : 4
PHIDEDIT.                                              : 5
PHIE.dec                                               : 6
PHIND.dec                                              : 7
PSSS.pu                                                : 8
RHOB.g/cm3                                             : 9
SP.UNKNOWN                                             : 10
SPBL.MV                                                : 11
SW.dec                                                 : 12
SWBAV.                                                 : 13
T.dec                                                  : 14
VCLAY.                                                 : 15
VSILT.                                                 : 16
VSS.                                                   : 17
W.                                                     : 18
~A Log Data Section
# ...
   1301.25     0.2700     0.1060     0.0393     0.1060     0.0986     0.1984     0.1949     2.5020   -32.8190    -4.0958     0.6569     0.4975   137.4497     0.4975     0.8276     0.5025     1.8911 
   1301.50     0.2780     0.0964     0.1372     0.0964     0.1012     0.2013     0.1710     2.5180   -33.2730    -4.5573     0.5194     0.4039   137.4596     0.4039     0.7135     0.5961     1.8796 
   1301.75     0.2460     0.0762     0.0121     0.0762     0.0752     0.1759     0.1738     2.5520   -33.2220    -4.5139     0.6671     0.4398   137.4695     0.4398     0.8135     0.5602     1.9211 
   1302.00     0.2620     0.0732     0.0024     0.0732     0.0679     0.1858     0.1989     2.5570   -32.7050    -4.0045     0.7871     0.5364   137.4795     0.5364     0.9013     0.4636     1.9176 
   1302.25     0.2830     0.0905     0.0066     0.0905     0.0823     0.2030     0.2039     2.5280   -32.4350    -3.7420     0.7645     0.5782   137.4894     0.5782     0.9007     0.4218     1.8957 
   1302.50     0.2770     0.0917     0.0631     0.0917     0.0930     0.1995     0.1804     2.5260   -32.2480    -3.5626     0.5738     0.4522   137.4993     0.4522     0.7665     0.5478     1.8670 
   1302.75     0.2290     0.0738     0.0224     0.0738     0.0780     0.1639     0.1738     2.5560   -32.5110    -3.8332     0.6137     0.3442   137.5092     0.3442     0.7466     0.6558     1.9061 
   1303.00     0.2480     0.0631     0.0121     0.0631     0.0699     0.1745     0.1851     2.5740   -32.2890    -3.6188     0.6338     0.3899   137.5191     0.3899     0.7766     0.6101     1.9323 
   1303.25     0.2770     0.0750     0.0025     0.0750     0.0676     0.1958     0.2237     2.5540   -31.9390    -3.2763     0.7827     0.5939   137.5290     0.5939     0.9117     0.4061     1.9046 
   1303.50     0.2890     0.1024     0.0021     0.1024     0.0650     0.2096     0.2165     2.5080   -31.8640    -3.2089     0.7826     0.6751   137.5390     0.6751     0.9294     0.3249     1.8933 
   1303.75     0.2860     0.1131     0.0261     0.1131     0.0923     0.2103     0.1795     2.4900   -31.9370    -3.2895     0.6730     0.5387   137.5489     0.5387     0.8491     0.4613     1.8728 
   1304.00     0.2650     0.0970     0.0434     0.0970     0.0923     0.1931     0.1808     2.5170   -32.0550    -3.4150     0.6149     0.4776   137.5588     0.4776     0.7988     0.5224     1.8713 
   1304.25     0.2530     0.0685     0.0014     0.0685     0.0626     0.1789     0.1977     2.5650   -31.9850    -3.3526     0.8036     0.5322   137.5687     0.5322     0.9081     0.4678     1.9214 
   1304.50     0.2510     0.0685     0.0010     0.0685     0.0541     0.1776     0.2140     2.5650   -31.1930    -2.5682     0.8367     0.6228   137.5786     0.6228     0.9384     0.3772     1.9326 
   1304.75     0.2730     0.0923     0.0078     0.0923     0.0822     0.1971     0.2163     2.5250   -31.6460    -3.0287     0.7494     0.5700   137.5885     0.5700     0.8922     0.4300     1.8943 
   1305.00     0.2780     0.0982     0.0508     0.0982     0.0964     0.2017     0.2072     2.5150   -31.9230    -3.3133     0.6167     0.4745   137.5984     0.4745     0.7986     0.5255     1.8888 
   1305.25     0.2550     0.0893     0.0476     0.0893     0.0890     0.1848     0.2017     2.5300   -31.6250    -3.0229     0.5864     0.4216   137.6084     0.4216     0.7608     0.5784     1.9051 
   1305.50     0.2500     0.0786     0.0224     0.0786     0.0794     0.1791     0.2033     2.5480   -31.4090    -2.8144     0.6223     0.4228   137.6183     0.4228     0.7820     0.5772     1.9159 
   1305.75     0.2600     0.0726     0.0033     0.0726     0.0672     0.1844     0.2116     2.5580   -31.1940    -2.6070     0.7538     0.5339   137.6282     0.5339     0.8853     0.4661     1.9111 
   1306.00     0.2720     0.0756     0.0023     0.0756     0.0632     0.1927     0.2060     2.5530   -30.7850    -2.2056     0.7659     0.6353   137.6381     0.6353     0.9146     0.3647     1.8986 
   1306.25     0.2580     0.0810     0.0050     0.0810     0.0713     0.1849     0.1909     2.5440   -30.3550    -1.7831     0.7372     0.5563   137.6480     0.5563     0.8834     0.4437     1.8999 
   1306.50     0.2400     0.0792     0.0062     0.0792     0.0712     0.1725     0.1941     2.5470   -30.1100    -1.5457     0.7156     0.4958   137.6579     0.4958     0.8566     0.5042     1.9120 
   1306.75     0.2350     0.0827     0.0018     0.0827     0.0653     0.1698     0.2218     2.5410   -30.3360    -1.7793     0.7964     0.5817   137.6678     0.5817     0.9148     0.4183     1.9108 
   1307.00     0.2450     0.0798     0.0010     0.0798     0.0532     0.1760     0.2362     2.5460   -29.9930    -1.4438     0.8088     0.7451   137.6778     0.7175     0.9460     0.2825     1.9639 
   1307.25     0.2620     0.0696     0.0010     0.0696     0.0508     0.1850     0.2389     2.5630   -29.4150    -0.8734     0.8606     0.8545   137.6877     0.6987     0.9580     0.3013     2.0096 
   1307.50     0.2830     0.0744     0.0010     0.0744     0.0605     0.1994     0.2455     2.5550   -29.3380    -0.8040     0.9065     0.7355   137.6976     0.6842     0.9705     0.3158     2.0093 
   1307.75     0.3180     0.0994     0.0010     0.0994     0.0625     0.2263     0.2669     2.5130   -29.4870    -0.9605     0.9529     0.7117   137.7075     0.6876     0.9853     0.3124     2.0050 
   1308.00     0.3610     0.1268     0.0010     0.1268     0.0613     0.2574     0.3031     2.4670   -29.6430    -1.1241     1.0000     0.9028   137.7174     0.6933     1.0000     0.3067     2.0045 
   1308.25     0.4000     0.1500     0.0010     0.1500     0.0612     0.2842     0.2967     2.4280   -29.7780    -1.2667     1.0000     0.9834   137.7273     0.6938     1.0000     0.3062     2.0228 
   1308.50     0.3440     0.1470     0.0010     0.1470     0.0712     0.2538     0.2776     2.4330   -29.9120    -1.4083     1.0000     0.9342   137.7373     0.6442     1.0000     0.3558     1.9887 
   1308.75     0.3180     0.0387     0.0010     0.0387     0.0504     0.2117     0.2607     2.6150   -29.9970    -1.5008     1.0000     0.9386   137.7472     0.5727     1.0000     0.4273     2.0750 
   1309.00     0.3100     0.0238     0.0010     0.0238     0.0368     0.2039     0.2552     2.6400   -29.7900    -1.3014     1.0000     0.8796   137.7571     0.5755     1.0000     0.4245     2.0987 
   1309.25     0.3210     0.0315     0.0010     0.0315     0.0426     0.2118     0.2601     2.6270   -29.5770    -1.0960     1.0000     0.8356   137.7670     0.6057     1.0000     0.3943     2.0838 
   1309.50     0.3280     0.0714     0.0010     0.0714     0.0733     0.2250     0.2638     2.5600   -29.4570    -0.9835     1.0000     0.9562   137.7769     0.6262     1.0000     0.3738     2.0361 
   1309.75     0.3250     0.0827     0.0010     0.0827     0.0752     0.2261     0.2708     2.5410   -29.5180    -1.0521     1.0000     1.0000   137.7868     0.6241     1.0000     0.3759     2.0246 
   1310.00     0.3260     0.0929     0.0010     0.0929     0.0772     0.2292     0.2754     2.5240   -29.5810    -1.1227     1.0000     1.0000   137.7968     0.6139     1.0000     0.3861     2.0147 
   1310.25     0.3460     0.0935     0.0010     0.0935     0.0770     0.2404     0.2807     2.5230   -29.6280    -1.1772     1.0000     1.0000   137.8067     0.6152     1.0000     0.3848     2.0173 
   1310.50     0.3650     0.0554     0.0010     0.0554     0.0705     0.2406     0.2828     2.5870   -29.3650    -0.9218     1.0000     1.0000   137.8166     0.6098     1.0000     0.3902     2.0583 
   1310.75     0.3560     0.0530     0.0010     0.0530     0.0674     0.2354     0.2810     2.5910   -29.1020    -0.6664     1.0000     1.0000   137.8265     0.6011     1.0000     0.3989     2.0603 
   1311.00     0.3470     0.0774     0.0010     0.0774     0.0772     0.2368     0.2676     2.5500   -28.8450    -0.4169     1.0000     1.0000   137.8364     0.6140     1.0000     0.3860     2.0326 
   1311.25     0.3340     0.0827     0.0010     0.0827     0.0772     0.2311     0.2563     2.5410   -28.7570    -0.3365     1.0000     1.0000   137.8463     0.6142     1.0000     0.3858     2.0255 
