~Version Information Section
VERS.          2.0                                     : CWLS LOG ASCII Standard
WRAP.          NO                                      : One line per depth step
~Well Information Section
STRT.M         1250.0000                               : Start Depth
STOP.M         1650.0000                               : Stop Depth
STEP.M         0.2500                                  : Step
NULL.          -999.0000                               : Null Value
COMP.                                                  : Company
WELL.          DO-974                                  : Well
FLD .          BANANO                                  : Field
LOC .                                                  : Location
LOC1.                                                  : Location 1
CTRY.                                                  : Country
STAT.                                                  : State
CNTY.                                                  : County
API .          23191                                   : API Number
SECT.                                                  : Section
TOWN.                                                  : Township
RNGE.                                                  : Range
PDAT.                                                  : Perm Datum
EPD .                                                  : Elevation
LMF .                                                  : Log Measured From
DMF .                                                  : Drill Measured From
APD .                                                  : Above Perm Datum
EKB .                                                  : Elev-Kelly Bushing.
EDF .                                                  : Elev-Drill Floor
EGL .                                                  : Elev-Ground Level
SRVC.          Oil&Gas,Inc.                            : Service Company
DATE.          13 Jun 2015 @ 17:27                     : Date
~Curve Information Section
DEPTH.M                                                : 1
PCNSS.                                                 : 2
PDSS.dec                                               : 3
PERM.                                                  : 4
PHIDEDIT.                                              : 5
PHIE.dec                                               : 6
PHIND.dec                                              : 7
PSSS.pu                                                : 8
RHOB.g/cm3                                             : 9
SP.UNKNOWN                                             : 10
SPBL.MV                                                : 11
SW.dec                                                 : 12
SWBAV.                                                 : 13
T.dec                                                  : 14
VCLAY.                                                 : 15
VSILT.                                                 : 16
VSS.                                                   : 17
W.                                                     : 18
~A Log Data Section
# ...
   1485.75     0.1850     0.0494     0.0010     0.0494     0.0340     0.1276     0.1512     2.5970   -22.8840    -5.8977     1.0000     0.5166   144.7671     0.5166     1.0000     0.4834     2.0152 
   1486.00     0.2260     0.0488     0.0010     0.0488     0.0435     0.1568     0.1331     2.5980   -23.9050    -6.9187     0.8832     0.5070   144.7770     0.5070     0.9424     0.4930     1.9621 
   1486.25     0.2000     0.0435     0.0010     0.0435     0.0310     0.1376     0.1672     2.6070   -24.4070    -7.4207     0.9608     0.5360   144.7869     0.5360     0.9818     0.4640     2.0079 
   1486.50     0.1890     0.0429     0.0010     0.0429     0.0282     0.1295     0.1554     2.6080   -24.5300    -7.5437     0.9882     0.5347   144.7969     0.5347     0.9945     0.4653     2.0197 
   1486.75     0.1920     0.0524     0.0010     0.0524     0.0393     0.1333     0.1503     2.5920   -24.6670    -7.6807     0.9300     0.5008   144.8068     0.5008     0.9651     0.4992     1.9761 
   1487.00     0.2070     0.0613     0.0019     0.0613     0.0558     0.1459     0.1558     2.5770   -24.8380    -7.8517     0.7381     0.4305   144.8167     0.4305     0.8509     0.5695     1.9454 
   1487.25     0.2130     0.0536     0.0037     0.0536     0.0570     0.1487     0.1647     2.5900   -24.8400    -7.8537     0.6774     0.3631   144.8266     0.3631     0.7945     0.6369     1.9435 
   1487.50     0.1730     0.0304     0.0010     0.0304     0.0354     0.1155     0.1522     2.6290   -24.3410    -7.3547     0.9315     0.3027   144.8365     0.3027     0.9522     0.6973     2.0177 
   1487.75     0.0920    -0.0060     0.0010    -0.0060     0.0000     0.0467     0.1023     2.6900   -23.7740    -6.7877     1.0000     0.2058   144.8464     0.2058     1.0000     0.7942     2.0000 
   1488.00     0.0860    -0.0095     0.0010    -0.0095     0.0000     0.0416     0.0590     2.6960   -23.1240    -6.1377     1.0000     0.2305   144.8564     0.2305     1.0000     0.7695     2.0000 
   1488.25     0.1370     0.0018     0.0010     0.0018     0.0048     0.0836     0.0998     2.6770   -22.4740    -5.4877     1.0000     0.3070   144.8663     0.3070     1.0000     0.6930     2.0000 
   1488.50     0.1870     0.0214     0.0010     0.0214     0.0227     0.1244     0.1557     2.6440   -22.2850    -5.2987     0.9414     0.4031   144.8762     0.4031     0.9650     0.5969     2.0317 
   1488.75     0.2040     0.0744     0.0079     0.0744     0.0664     0.1462     0.1879     2.5550   -22.1990    -5.2127     0.6593     0.4177   144.8861     0.4177     0.8016     0.5823     1.9284 
   1489.00     0.1770     0.0738     0.0028     0.0738     0.0603     0.1258     0.1706     2.5560   -21.9450    -4.9587     0.7291     0.4131   144.8960     0.4131     0.8410     0.5869     1.9522 
   1489.25     0.1840     0.0571     0.0010     0.0571     0.0451     0.1282     0.1508     2.5840   -21.6250    -4.6387     0.8713     0.4563   144.9059     0.4563     0.9300     0.5437     1.9727 
   1489.50     0.2110     0.0589     0.0014     0.0589     0.0547     0.1483     0.1580     2.5810   -21.3000    -4.3137     0.7590     0.4311   144.9158     0.4311     0.8629     0.5689     1.9513 
   1489.75     0.1690     0.0536     0.0010     0.0536     0.0505     0.1162     0.1590     2.5900   -20.8110    -3.8247     0.7979     0.3264   144.9258     0.3264     0.8638     0.6736     1.9785 
   1490.00     0.1500     0.0411     0.0010     0.0411     0.0348     0.0995     0.1343     2.6110   -20.1190    -3.1327     0.9291     0.3457   144.9357     0.3457     0.9536     0.6543     2.0204 
   1490.25     0.1490     0.0494     0.0010     0.0494     0.0357     0.0999     0.1285     2.5970   -19.5570    -2.5707     0.8609     0.4067   144.9456     0.4067     0.9175     0.5933     1.9992 
   1490.50     0.2070     0.0613     0.0010     0.0613     0.0507     0.1459     0.1490     2.5770   -19.2290    -2.2427     0.8293     0.4881   144.9555     0.4881     0.9126     0.5119     1.9457 
   1490.75     0.2180     0.0696     0.0010     0.0696     0.0553     0.1553     0.1745     2.5630   -18.9700    -1.9837     0.8638     0.5372   144.9654     0.5372     0.9370     0.4628     1.9585 
   1491.00     0.2300     0.0744     0.0010     0.0744     0.0616     0.1647     0.1968     2.5550   -19.3300    -2.3437     0.8648     0.5372   144.9753     0.5372     0.9374     0.4628     1.9553 
   1491.25     0.2340     0.0613     0.0010     0.0613     0.0552     0.1648     0.1957     2.5770   -20.5830    -3.5967     0.8858     0.5054   144.9852     0.5054     0.9435     0.4946     1.9554 
   1491.50     0.1850     0.0393     0.0010     0.0393     0.0338     0.1259     0.1884     2.6140   -21.4310    -4.4447     0.9917     0.4302   144.9952     0.4302     0.9953     0.5698     2.0251 
   1491.75     0.1520     0.0238     0.0010     0.0238     0.0221     0.0985     0.1513     2.6400   -21.1110    -4.1247     1.0000     0.3427   145.0051     0.3427     1.0000     0.6573     2.0000 
   1492.00     0.1280     0.0185     0.0010     0.0185     0.0113     0.0785     0.1143     2.6490   -20.3320    -3.3457     1.0000     0.3571   145.0150     0.3571     1.0000     0.6429     2.0000 
   1492.25     0.1770     0.0250     0.0010     0.0250     0.0163     0.1176     0.1399     2.6380   -19.8280    -2.8417     1.0000     0.4822   145.0249     0.4822     1.0000     0.5178     2.0535 
   1492.50     0.2110     0.0351     0.0010     0.0351     0.0216     0.1439     0.1639     2.6210   -19.8760    -2.8897     0.9439     0.5971   145.0348     0.5971     0.9774     0.4029     2.0406 
   1492.75     0.2540     0.0488     0.0010     0.0488     0.0342     0.1755     0.1957     2.5980   -20.1870    -3.2007     0.8807     0.6907   145.0447     0.6829     0.9622     0.3171     2.0294 
   1493.00     0.2570     0.0542     0.0010     0.0542     0.0413     0.1785     0.2160     2.5890   -20.5380    -3.5517     0.9346     0.7196   145.0547     0.6575     0.9776     0.3425     2.0342 
   1493.25     0.2310     0.0435     0.0010     0.0435     0.0331     0.1592     0.2021     2.6070   -20.8490    -3.8627     1.0000     0.6982   145.0646     0.5903     1.0000     0.4097     2.0518 
   1493.50     0.2320     0.0423     0.0010     0.0423     0.0315     0.1597     0.2006     2.6090   -20.9710    -3.9847     1.0000     0.6284   145.0745     0.6009     1.0000     0.3991     2.0528 
   1493.75     0.2440     0.0411     0.0010     0.0411     0.0410     0.1674     0.1899     2.6110   -20.9240    -3.9377     0.9534     0.5126   145.0844     0.5126     0.9773     0.4874     1.9851 
   1494.00     0.1930     0.0351     0.0010     0.0351     0.0304     0.1310     0.1713     2.6210   -20.7320    -3.7457     1.0000     0.4523   145.0943     0.4523     1.0000     0.5477     2.0199 
   1494.25     0.1860     0.0375     0.0010     0.0375     0.0275     0.1263     0.1652     2.6170   -20.4980    -3.5117     1.0000     0.4878   145.1042     0.4878     1.0000     0.5122     2.0180 
   1494.50     0.1940     0.0464     0.0010     0.0464     0.0266     0.1337     0.1806     2.6020   -20.4670    -3.4807     0.9592     0.6259   145.1142     0.5968     0.9836     0.4032     2.0385 
   1494.75     0.2130     0.0506     0.0010     0.0506     0.0342     0.1482     0.2021     2.5950   -20.4190    -3.4327     0.9883     0.7498   145.1241     0.5953     0.9953     0.4047     2.0373 
   1495.00     0.2390     0.0488     0.0010     0.0488     0.0387     0.1656     0.2138     2.5980   -19.7660    -2.7797     1.0000     0.8643   145.1340     0.5942     1.0000     0.4058     2.0454 
   1495.25     0.2620     0.0494     0.0010     0.0494     0.0424     0.1808     0.1913     2.5970   -18.6310    -1.6447     1.0000     0.8098   145.1439     0.6155     1.0000     0.3845     2.0479 
   1495.50     0.2410     0.0571     0.0010     0.0571     0.0456     0.1687     0.1679     2.5840   -18.0250    -1.0387     1.0000     0.6764   145.1538     0.5949     1.0000     0.4051     2.0345 
   1495.75     0.2150     0.0631     0.0010     0.0631     0.0462     0.1519     0.1442     2.5740   -18.1180    -1.1317     0.9914     0.5748   145.1637     0.5748     0.9963     0.4252     2.0156 
