~Version Information Section
VERS.          2.0                                     : CWLS LOG ASCII Standard
WRAP.          NO                                      : One line per depth step
~Well Information Section
STRT.M         1250.0000                               : Start Depth
STOP.M         1650.0000                               : Stop Depth
STEP.M         0.2500                                  : Step
NULL.          -999.0000                               : Null Value
COMP.                                                  : Company
WELL.          DO-974                                  : Well
FLD .          BANANO                                  : Field
LOC .                                                  : Location
LOC1.                                                  : Location 1
CTRY.                                                  : Country
STAT.                                                  : State
CNTY.                                                  : County
API .          23191                                   : API Number
SECT.                                                  : Section
TOWN.                                                  : Township
RNGE.                                                  : Range
PDAT.                                                  : Perm Datum
EPD .                                                  : Elevation
LMF .                                                  : Log Measured From
DMF .                                                  : Drill Measured From
APD .                                                  : Above Perm Datum
EKB .                                                  : Elev-Kelly Bushing.
EDF .                                                  : Elev-Drill Floor
EGL .                                                  : Elev-Ground Level
SRVC.          Oil&Gas,Inc.                            : Service Company
DATE.          13 Jun 2015 @ 17:27                     : Date
~Curve Information Section
DEPTH.M                                                : 1
PCNSS.                                                 : 2
PDSS.dec                                               : 3
PERM.                                                  : 4
PHIDEDIT.                                              : 5
PHIE.dec                                               : 6
PHIND.dec                                              : 7
PSSS.pu                                                : 8
RHOB.g/cm3                                             : 9
SP.UNKNOWN                                             : 10
SPBL.MV                                                : 11
SW.dec                                                 : 12
SWBAV.                                                 : 13
T.dec                                                  : 14
VCLAY.                                                 : 15
VSILT.                                                 : 16
VSS.                                                   : 17
W.                                                     : 18
~A Log Data Section
# ...
   1434.50     0.2760     0.0976     0.0040     0.0976     0.0793     0.2003     0.2053     2.5160   -29.2440    -4.8976     0.7945     0.6033   142.7345     0.6033     0.9185     0.3967     1.9402 
   1434.75     0.2840     0.1030     0.0017     0.1030     0.0685     0.2066     0.2189     2.5070   -28.9550    -4.6222     0.8175     0.6575   142.7444     0.6575     0.9375     0.3425     1.9474 
   1435.00     0.2580     0.0762     0.0029     0.0762     0.0657     0.1839     0.2185     2.5520   -28.6820    -4.3627     0.7585     0.5772   142.7543     0.5772     0.8979     0.4228     1.9144 
   1435.25     0.2250     0.0589     0.0069     0.0589     0.0586     0.1581     0.1802     2.5810   -28.4180    -4.1122     0.6167     0.4231   142.7643     0.4231     0.7789     0.5769     1.9161 
   1435.50     0.1920     0.0530     0.0033     0.0530     0.0546     0.1334     0.1617     2.5910   -27.9590    -3.6668     0.6713     0.3325   142.7742     0.3325     0.7806     0.6675     1.9428 
   1435.75     0.1760     0.0512     0.0010     0.0512     0.0458     0.1212     0.1563     2.5940   -27.1220    -2.8433     0.7242     0.3757   142.7841     0.3757     0.8278     0.6243     1.9632 
   1436.00     0.2600     0.0560     0.0019     0.0560     0.0581     0.1808     0.1653     2.5860   -26.2670    -2.0018     0.7507     0.4904   142.7940     0.4904     0.8730     0.5096     1.9259 
   1436.25     0.2750     0.0726     0.0010     0.0726     0.0616     0.1940     0.1929     2.5580   -25.5470    -1.2954     0.8365     0.6357   142.8039     0.6357     0.9404     0.3643     1.9380 
   1436.50     0.2840     0.0637     0.0010     0.0637     0.0512     0.1976     0.2092     2.5730   -25.2270    -0.9889     0.8864     0.7743   142.8138     0.6974     0.9656     0.3026     2.0184 
   1436.75     0.3000     0.0536     0.0010     0.0536     0.0490     0.2049     0.2186     2.5900   -25.6640    -1.4394     0.9533     0.8898   142.8237     0.6736     0.9847     0.3264     2.0393 
   1437.00     0.3080     0.0601     0.0010     0.0601     0.0572     0.2110     0.2271     2.5790   -26.3250    -2.1139     0.9887     0.9820   142.8337     0.6590     0.9962     0.3410     2.0389 
   1437.25     0.2870     0.0774     0.0010     0.0774     0.0684     0.2025     0.2329     2.5500   -26.9040    -2.7065     0.9999     1.0000   142.8436     0.6310     1.0000     0.3690     2.0219 
   1437.50     0.2820     0.0738     0.0010     0.0738     0.0650     0.1986     0.2304     2.5560   -27.3230    -3.1390     1.0000     1.0000   142.8535     0.6251     1.0000     0.3749     2.0246 
   1437.75     0.2620     0.0452     0.0010     0.0452     0.0408     0.1799     0.2367     2.6040   -27.6840    -3.5135     1.0000     0.9932   142.8634     0.5974     1.0000     0.4026     2.0554 
   1438.00     0.2430     0.0417     0.0010     0.0417     0.0354     0.1669     0.2131     2.6100   -27.9490    -3.7921     1.0000     0.9515   142.8733     0.5795     1.0000     0.4205     2.0577 
   1438.25     0.2440     0.0512     0.0010     0.0512     0.0405     0.1694     0.2050     2.5940   -28.0670    -3.9236     1.0000     0.8887   142.8832     0.6073     1.0000     0.3927     2.0432 
   1438.50     0.2560     0.0333     0.0010     0.0333     0.0258     0.1737     0.2023     2.6240   -28.1310    -4.0011     0.9574     0.8047   142.8931     0.6468     0.9850     0.3532     2.0568 
   1438.75     0.2470     0.0262     0.0010     0.0262     0.0168     0.1664     0.1967     2.6360   -28.1320    -4.0156     0.9082     0.7313   142.9031     0.6637     1.0000     0.3363     2.0548 
   1439.00     0.2330     0.0268     0.0010     0.0268     0.0147     0.1574     0.1770     2.6350   -27.9950    -3.8922     0.9093     0.6570   142.9130     0.6570     1.0000     0.3430     2.0542 
   1439.25     0.2060     0.0280     0.0010     0.0280     0.0139     0.1391     0.1505     2.6330   -27.7010    -3.6117     0.9455     0.6086   142.9229     0.6086     1.0000     0.3914     2.0482 
   1439.50     0.1890     0.0315     0.0010     0.0315     0.0153     0.1275     0.1440     2.6270   -27.5380    -3.4622     0.9450     0.5813   142.9328     0.5813     1.0000     0.4187     2.0221 
   1439.75     0.2340     0.0411     0.0010     0.0411     0.0337     0.1608     0.1582     2.6110   -27.4950    -3.4328     0.8956     0.5699   142.9427     0.5699     0.9551     0.4301     1.9744 
   1440.00     0.2230     0.0506     0.0010     0.0506     0.0372     0.1551     0.1710     2.5950   -27.2650    -3.2163     0.8816     0.5864   142.9526     0.5864     0.9510     0.4136     1.9934 
   1440.25     0.2160     0.0571     0.0010     0.0571     0.0373     0.1515     0.1673     2.5840   -27.0520    -3.0168     0.8687     0.6255   142.9626     0.6255     0.9508     0.3745     2.0014 
   1440.50     0.2160     0.0696     0.0010     0.0696     0.0470     0.1539     0.1666     2.5630   -27.1410    -3.1194     0.8665     0.6252   142.9725     0.6252     0.9500     0.3748     1.9773 
   1440.75     0.2230     0.0649     0.0010     0.0649     0.0413     0.1579     0.1729     2.5710   -27.3870    -3.3789     0.8676     0.6655   142.9824     0.6655     0.9557     0.3345     1.9693 
   1441.00     0.2290     0.0571     0.0010     0.0571     0.0380     0.1605     0.1712     2.5840   -27.8070    -3.8124     0.9086     0.7159   142.9923     0.6508     0.9681     0.3492     2.0074 
   1441.25     0.2240     0.0411     0.0010     0.0411     0.0277     0.1540     0.1613     2.6110   -28.1180    -4.1369     0.9821     0.7661   143.0022     0.6128     0.9931     0.3872     2.0509 
   1441.50     0.2290     0.0411     0.0010     0.0411     0.0300     0.1574     0.1627     2.6110   -28.1440    -4.1765     1.0000     0.8149   143.0121     0.6001     1.0000     0.3999     2.0543 
   1441.75     0.2650     0.0560     0.0010     0.0560     0.0446     0.1840     0.1732     2.5860   -27.9940    -4.0400     0.9461     0.8180   143.0220     0.6565     0.9815     0.3435     2.0350 
   1442.00     0.2760     0.0554     0.0010     0.0554     0.0452     0.1908     0.1927     2.5870   -27.5730    -3.6325     0.9294     0.8075   143.0320     0.6719     0.9768     0.3281     2.0337 
   1442.25     0.2530     0.0464     0.0010     0.0464     0.0343     0.1743     0.1755     2.6020   -27.2070    -3.2801     0.9298     0.7595   143.0419     0.6588     0.9760     0.3412     2.0399 
   1442.50     0.2290     0.0470     0.0010     0.0470     0.0298     0.1585     0.1630     2.6010   -27.3610    -3.4476     0.9068     0.6938   143.0518     0.6537     0.9677     0.3463     2.0070 
   1442.75     0.2250     0.0536     0.0010     0.0536     0.0407     0.1571     0.1607     2.5900   -27.8850    -3.9851     0.8797     0.5778   143.0617     0.5778     0.9492     0.4222     1.9560 
   1443.00     0.2380     0.0542     0.0017     0.0542     0.0544     0.1660     0.1620     2.5890   -28.2830    -4.3966     0.7381     0.4608   143.0716     0.4608     0.8588     0.5392     1.9383 
   1443.25     0.2050     0.0387     0.0010     0.0387     0.0410     0.1403     0.1536     2.6150   -28.5480    -4.6752     0.7518     0.3937   143.0815     0.3937     0.8495     0.6063     1.9743 
   1443.50     0.1800     0.0054     0.0010     0.0054     0.0137     0.1167     0.1337     2.6710   -28.8900    -5.0307     1.0000     0.3467   143.0914     0.3467     1.0000     0.6533     2.0000 
   1443.75     0.1910     0.0226     0.0010     0.0226     0.0308     0.1275     0.1390     2.6420   -29.3440    -5.4982     0.8970     0.3322   143.1014     0.3322     0.9312     0.6678     2.0221 
   1444.00     0.1920     0.0506     0.0022     0.0506     0.0514     0.1330     0.1482     2.5950   -29.8340    -6.0018     0.6862     0.3480   143.1113     0.3480     0.7954     0.6520     1.9441 
   1444.25     0.2000     0.0655     0.0100     0.0655     0.0625     0.1416     0.1643     2.5700   -30.2960    -6.4773     0.6038     0.3734   143.1212     0.3734     0.7517     0.6266     1.9114 
   1444.50     0.2230     0.0774     0.0324     0.0774     0.0744     0.1604     0.1832     2.5500   -30.6800    -6.8748     0.5457     0.4013   143.1311     0.4013     0.7280     0.5987     1.8925 
