~Version Information Section
VERS.          2.0                                     : CWLS LOG ASCII Standard
WRAP.          NO                                      : One line per depth step
~Well Information Section
STRT.M         1250.0000                               : Start Depth
STOP.M         1650.0000                               : Stop Depth
STEP.M         0.2500                                  : Step
NULL.          -999.0000                               : Null Value
COMP.                                                  : Company
WELL.          DO-974                                  : Well
FLD .          BANANO                                  : Field
LOC .                                                  : Location
LOC1.                                                  : Location 1
CTRY.                                                  : Country
STAT.                                                  : State
CNTY.                                                  : County
API .          23191                                   : API Number
SECT.                                                  : Section
TOWN.                                                  : Township
RNGE.                                                  : Range
PDAT.                                                  : Perm Datum
EPD .                                                  : Elevation
LMF .                                                  : Log Measured From
DMF .                                                  : Drill Measured From
APD .                                                  : Above Perm Datum
EKB .                                                  : Elev-Kelly Bushing.
EDF .                                                  : Elev-Drill Floor
EGL .                                                  : Elev-Ground Level
SRVC.          Oil&Gas,Inc.                            : Service Company
DATE.          13 Jun 2015 @ 17:27                     : Date
~Curve Information Section
DEPTH.M                                                : 1
PCNSS.                                                 : 2
PDSS.dec                                               : 3
PERM.                                                  : 4
PHIDEDIT.                                              : 5
PHIE.dec                                               : 6
PHIND.dec                                              : 7
PSSS.pu                                                : 8
RHOB.g/cm3                                             : 9
SP.UNKNOWN                                             : 10
SPBL.MV                                                : 11
SW.dec                                                 : 12
SWBAV.                                                 : 13
T.dec                                                  : 14
VCLAY.                                                 : 15
VSILT.                                                 : 16
VSS.                                                   : 17
W.                                                     : 18
~A Log Data Section
# ...
   1332.00     0.2500     0.1119     1.0302     0.1119     0.1137     0.1865     0.1910     2.4920   -33.3000    -5.5077     0.4288     0.3283   138.6693     0.3283     0.6163     0.6717     1.8307 
   1332.25     0.2440     0.1030     0.3266     0.1030     0.0990     0.1804     0.2038     2.5070   -33.4650    -5.6802     0.4468     0.4011   138.6792     0.4011     0.6687     0.5989     1.8477 
   1332.50     0.2700     0.1077     0.7010     0.1077     0.1115     0.1988     0.2110     2.4990   -33.6220    -5.8448     0.4097     0.3671   138.6891     0.3671     0.6264     0.6329     1.8276 
   1332.75     0.2870     0.1238     4.6219     0.1238     0.1376     0.2136     0.1985     2.4720   -33.7480    -5.9784     0.3766     0.2559   138.6990     0.2559     0.5362     0.7441     1.8000 
   1333.00     0.1970     0.1226     2.4701     0.1226     0.1168     0.1503     0.1672     2.4740   -33.6190    -5.8569     0.4216     0.2533   138.7090     0.2533     0.5681     0.7467     1.8000 
   1333.25     0.2100     0.1179     2.3523     0.1179     0.1163     0.1592     0.1638     2.4820   -33.2640    -5.5095     0.4215     0.2507   138.7189     0.2507     0.5666     0.7493     1.8023 
   1333.50     0.2320     0.1405     1.0062     0.1405     0.1227     0.1804     0.1868     2.4440   -32.8430    -5.0961     0.3695     0.3755   138.7288     0.3755     0.6062     0.6245     1.8246 
   1333.75     0.2770     0.1601     0.9636     0.1601     0.1211     0.2165     0.1937     2.4110   -32.3960    -4.6567     0.3685     0.3945   138.7387     0.3945     0.6176     0.6055     1.8286 
   1334.00     0.2270     0.1280     3.7787     0.1280     0.1288     0.1739     0.1703     2.4650   -32.6140    -4.8822     0.3631     0.2407   138.7486     0.2407     0.5164     0.7593     1.8000 
   1334.25     0.2030     0.0875     1.0629     0.0875     0.0997     0.1479     0.1540     2.5330   -33.1910    -5.4668     0.4484     0.1533   138.7585     0.1533     0.5330     0.8467     1.8080 
   1334.50     0.2120     0.0661     0.4107     0.0661     0.0864     0.1504     0.1564     2.5690   -33.4640    -5.7474     0.5017     0.1384   138.7684     0.1384     0.5707     0.8616     1.8208 
   1334.75     0.1880     0.0780     0.4331     0.0780     0.0888     0.1349     0.1536     2.5490   -33.3940    -5.6849     0.4958     0.1555   138.7784     0.1555     0.5741     0.8445     1.8218 
   1335.00     0.1740     0.0988     0.2811     0.0988     0.0957     0.1279     0.1785     2.5140   -32.9010    -5.1995     0.5000     0.2253   138.7883     0.2253     0.6126     0.7747     1.8547 
   1335.25     0.2260     0.1429     0.1132     0.1429     0.0999     0.1765     0.2240     2.4400   -31.7780    -4.0841     0.5422     0.5006   138.7982     0.5006     0.7714     0.4994     1.8501 
   1335.50     0.2820     0.2512     0.0010     0.2491     0.0336     0.2556     0.2546     2.2580   -30.6180    -2.9316     0.6982     1.0000   138.8081     0.8321     0.9493     0.1679     1.9355 
   1335.75     0.3340     0.3399     0.0010     0.2654     0.0398     0.3319     0.2708     2.1090   -29.9370    -2.2582     0.8438     1.0000   138.8180     0.8011     0.9689     0.1989     2.0217 
   1336.00     0.3430     0.3030     0.0010     0.2876     0.0517     0.3101     0.2928     2.1710   -29.4540    -1.7828     0.9854     1.0000   138.8279     0.7415     0.9962     0.2585     2.0369 
   1336.25     0.3450     0.2464     0.0010     0.2464     0.0589     0.2856     0.2733     2.2660   -28.9960    -1.3417     1.0000     1.0000   138.8378     0.7056     1.0000     0.2944     2.0244 
   1336.50     0.3440     0.2375     0.0010     0.2375     0.0595     0.2819     0.2469     2.2810   -28.9360    -1.2986     1.0000     1.0000   138.8478     0.7026     1.0000     0.2974     2.0217 
   1336.75     0.3400     0.2494     0.0010     0.2363     0.0586     0.2837     0.2419     2.2610   -29.0820    -1.4615     1.0000     1.0000   138.8577     0.7068     1.0000     0.2932     2.0232 
   1337.00     0.3340     0.2720     0.0010     0.2321     0.0581     0.2882     0.2377     2.2230   -29.0890    -1.4854     1.0000     1.0000   138.8676     0.7093     1.0000     0.2907     2.0263 
   1337.25     0.3390     0.2625     0.0010     0.2318     0.0596     0.2878     0.2374     2.2390   -28.6550    -1.0683     1.0000     1.0000   138.8775     0.7018     1.0000     0.2982     2.0257 
   1337.50     0.3530     0.2440     0.0010     0.2304     0.0615     0.2895     0.2360     2.2700   -28.0270    -0.4572     1.0000     1.0000   138.8874     0.6923     1.0000     0.3077     2.0261 
   1337.75     0.3550     0.2655     0.0010     0.2247     0.0602     0.2984     0.2304     2.2340   -27.7930    -0.2402     1.0000     1.0000   138.8973     0.6991     1.0000     0.3009     2.0330 
   1338.00     0.3530     0.2655     0.0010     0.2229     0.0597     0.2972     0.2286     2.2340   -27.9150    -0.3791     1.0000     1.0000   138.9073     0.7013     1.0000     0.2987     2.0322 
   1338.25     0.3520     0.2458     0.0010     0.2238     0.0603     0.2895     0.2295     2.2670   -28.1140    -0.5950     1.0000     1.0000   138.9172     0.6984     1.0000     0.3016     2.0267 
   1338.50     0.3430     0.2375     0.0010     0.2224     0.0608     0.2813     0.2281     2.2810   -28.1190    -0.6169     1.0000     1.0000   138.9271     0.6962     1.0000     0.3038     2.0207 
   1338.75     0.3200     0.2250     0.0010     0.2180     0.0634     0.2632     0.2238     2.3020   -27.9310    -0.4458     1.0000     1.0000   138.9370     0.6832     1.0000     0.3168     2.0062 
   1339.00     0.3010     0.2137     0.0010     0.2137     0.0666     0.2475     0.2202     2.3210   -27.7240    -0.2557     1.0000     1.0000   138.9469     0.6670     1.0000     0.3330     1.9912 
   1339.25     0.3090     0.2161     0.0010     0.2145     0.0648     0.2534     0.2203     2.3170   -27.7130    -0.2616     1.0000     1.0000   138.9568     0.6758     1.0000     0.3242     1.9977 
   1339.50     0.3130     0.2292     0.0010     0.2167     0.0636     0.2601     0.2224     2.2950   -27.7940    -0.3595     1.0000     1.0000   138.9667     0.6820     1.0000     0.3180     2.0038 
   1339.75     0.3180     0.2357     0.0010     0.2237     0.0633     0.2655     0.2294     2.2840   -28.0950    -0.6774     1.0000     1.0000   138.9767     0.6837     1.0000     0.3163     2.0078 
   1340.00     0.3250     0.2619     0.0010     0.2352     0.0617     0.2789     0.2408     2.2400   -28.6560    -1.2554     1.0000     1.0000   138.9866     0.6916     1.0000     0.3084     2.0185 
   1340.25     0.3460     0.3101     0.0010     0.2495     0.0565     0.3158     0.2550     2.1590   -29.2600    -1.8763     1.0000     1.0000   138.9965     0.7173     1.0000     0.2827     2.0448 
   1340.50     0.3610     0.3452     0.0010     0.2697     0.0539     0.3442     0.2751     2.1000   -29.3200    -1.9532     1.0000     1.0000   139.0064     0.7305     1.0000     0.2695     2.0620 
   1340.75     0.3580     0.3488     0.0010     0.2763     0.0554     0.3457     0.2816     2.0940   -29.1250    -1.7751     1.0000     1.0000   139.0163     0.7232     1.0000     0.2768     2.0648 
   1341.00     0.3210     0.3238     0.0010     0.2583     0.0608     0.3169     0.2638     2.1360   -28.9290    -1.5960     1.0000     1.0000   139.0262     0.6961     1.0000     0.3039     2.0463 
   1341.25     0.3010     0.2905     0.0010     0.2472     0.0660     0.2880     0.2527     2.1920   -29.0840    -1.7679     1.0000     0.9984   139.0361     0.6699     1.0000     0.3301     2.0211 
   1341.50     0.2910     0.2304     0.0010     0.2304     0.0749     0.2460     0.2550     2.2930   -29.4020    -2.1028     1.0000     1.0000   139.0461     0.6257     1.0000     0.3743     1.9754 
   1341.75     0.2780     0.2000     0.0010     0.2000     0.0772     0.2281     0.2514     2.3440   -29.6760    -2.3937     1.0000     0.9644   139.0560     0.6139     1.0000     0.3861     1.9576 
   1342.00     0.2810     0.2286     0.0010     0.2286     0.0713     0.2404     0.2428     2.2960   -29.8760    -2.6107     1.0000     1.0000   139.0659     0.6435     1.0000     0.3565     1.9783 
