~Version Information Section
VERS.          2.0                                     : CWLS LOG ASCII Standard
WRAP.          NO                                      : One line per depth step
~Well Information Section
STRT.M         1250.0000                               : Start Depth
STOP.M         1650.0000                               : Stop Depth
STEP.M         0.2500                                  : Step
NULL.          -999.0000                               : Null Value
COMP.                                                  : Company
WELL.          DO-974                                  : Well
FLD .          BANANO                                  : Field
LOC .                                                  : Location
LOC1.                                                  : Location 1
CTRY.                                                  : Country
STAT.                                                  : State
CNTY.                                                  : County
API .          23191                                   : API Number
SECT.                                                  : Section
TOWN.                                                  : Township
RNGE.                                                  : Range
PDAT.                                                  : Perm Datum
EPD .                                                  : Elevation
LMF .                                                  : Log Measured From
DMF .                                                  : Drill Measured From
APD .                                                  : Above Perm Datum
EKB .                                                  : Elev-Kelly Bushing.
EDF .                                                  : Elev-Drill Floor
EGL .                                                  : Elev-Ground Level
SRVC.          Oil&Gas,Inc.                            : Service Company
DATE.          13 Jun 2015 @ 17:27                     : Date
~Curve Information Section
DEPTH.M                                                : 1
PCNSS.                                                 : 2
PDSS.dec                                               : 3
PERM.                                                  : 4
PHIDEDIT.                                              : 5
PHIE.dec                                               : 6
PHIND.dec                                              : 7
PSSS.pu                                                : 8
RHOB.g/cm3                                             : 9
SP.UNKNOWN                                             : 10
SPBL.MV                                                : 11
SW.dec                                                 : 12
SWBAV.                                                 : 13
T.dec                                                  : 14
VCLAY.                                                 : 15
VSILT.                                                 : 16
VSS.                                                   : 17
W.                                                     : 18
~A Log Data Section
# ...
   1352.50     0.2900     0.2756     0.0246     0.2020     0.0992     0.2745     0.2078     2.2170   -32.7430    -6.1880     0.7101     0.5040   139.4823     0.5040     0.8562     0.4960     1.8460 
   1352.75     0.2470     0.2012     0.0188     0.1880     0.0979     0.2110     0.1940     2.3420   -33.2170    -6.6789     0.7319     0.5103   139.4922     0.5103     0.8687     0.4897     1.8588 
   1353.00     0.2560     0.2506     0.0273     0.2069     0.1000     0.2465     0.2127     2.2590   -33.3620    -6.8408     0.7026     0.5002   139.5022     0.5002     0.8514     0.4998     1.8457 
   1353.25     0.2950     0.3208     0.0049     0.2488     0.0845     0.3064     0.2543     2.1410   -33.0770    -6.5727     0.7999     0.5776   139.5121     0.5776     0.9155     0.4224     1.8490 
   1353.50     0.3370     0.3780     0.0010     0.2385     0.0479     0.3585     0.2441     2.0450   -32.6400    -6.1526     0.8378     0.6318   139.5220     0.6318     0.9403     0.3682     1.8324 
   1353.75     0.3330     0.3452     0.0520     0.2064     0.0831     0.3352     0.2122     2.1000   -31.5240    -5.0535     0.5419     0.3609   139.5319     0.3609     0.7072     0.6391     1.8118 
   1354.00     0.3080     0.2381     0.0409     0.1872     0.0777     0.2598     0.1932     2.2800   -30.0820    -3.6284     0.5385     0.4021   139.5418     0.4021     0.7241     0.5979     1.8168 
   1354.25     0.2110     0.1548     0.0204     0.1548     0.0767     0.1688     0.2223     2.4200   -29.5590    -3.1223     0.6170     0.4099   139.5517     0.4099     0.7740     0.5901     1.8690 
   1354.50     0.2610     0.2030     0.0137     0.2030     0.0757     0.2170     0.2311     2.3390   -29.3180    -2.8982     0.6570     0.4177   139.5616     0.4177     0.8003     0.5823     1.8482 
   1354.75     0.2980     0.2869     0.0010     0.2407     0.0540     0.2846     0.2463     2.1980   -29.0420    -2.6392     1.0000     0.5845   139.5716     0.5845     1.0000     0.4155     1.8926 
   1355.00     0.3700     0.3833     0.0010     0.2779     0.0316     0.3727     0.2832     2.0360   -28.7560    -2.3701     1.0000     0.7703   139.5815     0.7566     1.0000     0.2434     2.0528 
   1355.25     0.3780     0.4542     0.0010     0.2670     0.0469     0.4223     0.2724     1.9170   -28.3800    -2.0110     1.0000     0.8850   139.5914     0.7653     1.0000     0.2347     2.0971 
   1355.50     0.3750     0.4185     0.0010     0.2628     0.0526     0.3978     0.2682     1.9770   -27.9100    -1.5579     1.0000     0.9656   139.6013     0.7370     1.0000     0.2630     2.0979 
   1355.75     0.3920     0.3768     0.0010     0.2717     0.0577     0.3754     0.2770     2.0470   -27.6240    -1.2888     1.0000     1.0000   139.6112     0.7113     1.0000     0.2887     2.0899 
   1356.00     0.4160     0.3423     0.0010     0.2857     0.0613     0.3639     0.2910     2.1050   -27.5740    -1.2557     1.0000     1.0000   139.6211     0.6936     1.0000     0.3064     2.0833 
   1356.25     0.4340     0.3101     0.0010     0.2649     0.0628     0.3584     0.2703     2.1590   -27.5760    -1.2746     1.0000     1.0000   139.6311     0.6860     1.0000     0.3140     2.0790 
   1356.50     0.4220     0.2780     0.0010     0.2519     0.0664     0.3393     0.2574     2.2130   -27.5260    -1.2632     1.0000     1.0000   139.6410     0.6678     1.0000     0.3322     2.0616 
   1356.75     0.3960     0.2464     0.0010     0.2464     0.0695     0.3141     0.2583     2.2660   -27.4620    -1.2378     1.0000     1.0000   139.6509     0.6525     1.0000     0.3475     2.0374 
   1357.00     0.4060     0.2304     0.0010     0.2304     0.0675     0.3134     0.2636     2.2930   -27.3990    -1.2134     1.0000     1.0000   139.6608     0.6623     1.0000     0.3377     2.0391 
   1357.25     0.4150     0.2595     0.0010     0.2595     0.0632     0.3286     0.2691     2.2440   -27.2090    -1.0620     1.0000     1.0000   139.6707     0.6841     1.0000     0.3159     2.0545 
   1357.50     0.4200     0.2738     0.0010     0.2561     0.0618     0.3366     0.2616     2.2200   -26.9770    -0.8686     1.0000     1.0000   139.6806     0.6910     1.0000     0.3090     2.0612 
   1357.75     0.4220     0.2607     0.0010     0.2454     0.0641     0.3326     0.2510     2.2420   -26.9900    -0.9202     1.0000     1.0000   139.6906     0.6797     1.0000     0.3203     2.0573 
   1358.00     0.4170     0.2506     0.0010     0.2506     0.0673     0.3263     0.2634     2.2590   -27.4430    -1.4117     1.0000     1.0000   139.7005     0.6637     1.0000     0.3363     2.0500 
   1358.25     0.4050     0.2768     0.0010     0.2740     0.0672     0.3302     0.2793     2.2150   -27.9980    -2.0053     1.0000     1.0000   139.7104     0.6642     1.0000     0.3358     2.0534 
   1358.50     0.4240     0.3244     0.0010     0.2874     0.0607     0.3597     0.2926     2.1350   -28.0430    -2.0889     1.0000     1.0000   139.7203     0.6963     1.0000     0.3037     2.0796 
   1358.75     0.4200     0.3387     0.0010     0.2800     0.0581     0.3642     0.2852     2.1110   -27.8690    -1.9535     1.0000     1.0000   139.7302     0.7095     1.0000     0.2905     2.0814 
   1359.00     0.3740     0.3208     0.0010     0.2567     0.0619     0.3321     0.2621     2.1410   -27.6740    -1.7971     1.0000     1.0000   139.7401     0.6906     1.0000     0.3094     2.0575 
   1359.25     0.3510     0.2339     0.0010     0.2339     0.0727     0.2848     0.2414     2.2870   -27.6050    -1.7667     1.0000     1.0000   139.7500     0.6363     1.0000     0.3637     2.0087 
   1359.50     0.3630     0.2202     0.0010     0.2202     0.0732     0.2871     0.2488     2.3100   -27.6000    -1.8003     1.0000     1.0000   139.7599     0.6338     1.0000     0.3662     2.0097 
   1359.75     0.3910     0.2560     0.0010     0.2522     0.0670     0.3149     0.2577     2.2500   -27.9310    -2.1699     1.0000     1.0000   139.7699     0.6652     1.0000     0.3348     2.0409 
   1360.00     0.3860     0.3030     0.0010     0.2501     0.0637     0.3307     0.2556     2.1710   -28.6490    -2.9264     1.0000     1.0000   139.7798     0.6816     1.0000     0.3184     2.0559 
   1360.25     0.3730     0.2738     0.0010     0.2468     0.0668     0.3118     0.2523     2.2200   -29.2450    -3.5610     1.0000     1.0000   139.7897     0.6659     1.0000     0.3341     2.0385 
   1360.50     0.3520     0.1673     0.0010     0.1673     0.0777     0.2642     0.2502     2.3990   -29.1750    -3.5296     1.0000     1.0000   139.7996     0.6113     1.0000     0.3887     1.9829 
   1360.75     0.3370     0.1881     0.0010     0.1881     0.0761     0.2619     0.2550     2.3640   -28.7840    -3.1772     1.0000     1.0000   139.8095     0.6197     1.0000     0.3803     1.9846 
   1361.00     0.3300     0.2292     0.0010     0.2292     0.0700     0.2707     0.2626     2.2950   -28.1590    -2.5908     1.0000     1.0000   139.8194     0.6498     1.0000     0.3502     2.0023 
   1361.25     0.3340     0.2679     0.0010     0.2614     0.0636     0.2867     0.2668     2.2300   -28.5590    -3.0294     1.0000     1.0000   139.8294     0.6819     1.0000     0.3181     2.0223 
   1361.50     0.3180     0.3006     0.0010     0.2515     0.0596     0.3003     0.2570     2.1750   -29.7250    -4.2340     1.0000     1.0000   139.8393     0.7020     1.0000     0.2980     2.0342 
   1361.75     0.3130     0.2571     0.0010     0.2449     0.0687     0.2698     0.2504     2.2480   -31.4260    -5.9736     1.0000     1.0000   139.8492     0.6566     1.0000     0.3434     2.0037 
   1362.00     0.3590     0.2268     0.0010     0.2268     0.0694     0.2870     0.2529     2.2990   -33.0240    -7.6101     1.0000     1.0000   139.8591     0.6532     1.0000     0.3468     2.0158 
   1362.25     0.3350     0.2536     0.0010     0.2536     0.0786     0.2821     0.2607     2.2540   -34.4020    -9.0267     1.0000     1.0000   139.8690     0.6070     1.0000     0.3930     1.9956 
   1362.50     0.3130     0.2851     0.0010     0.2851     0.0838     0.2884     0.2951     2.2010   -34.6980    -9.3613     1.0000     1.0000   139.8789     0.5812     1.0000     0.4188     1.9906 
