~Version Information Section
VERS.          2.0                                     : CWLS LOG ASCII Standard
WRAP.          NO                                      : One line per depth step
~Well Information Section
STRT.M         1250.0000                               : Start Depth
STOP.M         1650.0000                               : Stop Depth
STEP.M         0.2500                                  : Step
NULL.          -999.0000                               : Null Value
COMP.                                                  : Company
WELL.          DO-974                                  : Well
FLD .          BANANO                                  : Field
LOC .                                                  : Location
LOC1.                                                  : Location 1
CTRY.                                                  : Country
STAT.                                                  : State
CNTY.                                                  : County
API .          23191                                   : API Number
SECT.                                                  : Section
TOWN.                                                  : Township
RNGE.                                                  : Range
PDAT.                                                  : Perm Datum
EPD .                                                  : Elevation
LMF .                                                  : Log Measured From
DMF .                                                  : Drill Measured From
APD .                                                  : Above Perm Datum
EKB .                                                  : Elev-Kelly Bushing.
EDF .                                                  : Elev-Drill Floor
EGL .                                                  : Elev-Ground Level
SRVC.          Oil&Gas,Inc.                            : Service Company
DATE.          13 Jun 2015 @ 17:27                     : Date
~Curve Information Section
DEPTH.M                                                : 1
PCNSS.                                                 : 2
PDSS.dec                                               : 3
PERM.                                                  : 4
PHIDEDIT.                                              : 5
PHIE.dec                                               : 6
PHIND.dec                                              : 7
PSSS.pu                                                : 8
RHOB.g/cm3                                             : 9
SP.UNKNOWN                                             : 10
SPBL.MV                                                : 11
SW.dec                                                 : 12
SWBAV.                                                 : 13
T.dec                                                  : 14
VCLAY.                                                 : 15
VSILT.                                                 : 16
VSS.                                                   : 17
W.                                                     : 18
~A Log Data Section
# ...
   1403.75     0.3630     0.3482     0.0010     0.2345     0.0503     0.3469     0.2401     2.0950   -27.0960    -0.8425     1.0000     1.0000   141.5149     0.7485     1.0000     0.2515     2.0573 
   1404.00     0.3870     0.3292     0.0010     0.2126     0.0547     0.3426     0.2184     2.1270   -26.6520    -0.4145     1.0000     1.0000   141.5249     0.7266     1.0000     0.2734     2.0613 
   1404.25     0.3800     0.3048     0.0010     0.2077     0.0600     0.3281     0.2135     2.1680   -26.6290    -0.4074     1.0000     1.0000   141.5348     0.7001     1.0000     0.2999     2.0540 
   1404.50     0.4110     0.2500     0.0010     0.2137     0.0639     0.3231     0.2195     2.2600   -26.7620    -0.5564     1.0000     1.0000   141.5447     0.6805     1.0000     0.3195     2.0491 
   1404.75     0.4790     0.2161     0.0010     0.2161     0.0629     0.3419     0.2521     2.3170   -26.9010    -0.7113     1.0000     0.9981   141.5546     0.6854     1.0000     0.3146     2.0646 
   1405.00     0.4640     0.2327     0.0010     0.2133     0.0656     0.3415     0.2191     2.2890   -27.0540    -0.8803     1.0000     1.0000   141.5645     0.6720     1.0000     0.3280     2.0633 
   1405.25     0.4690     0.2940     0.0010     0.2303     0.0634     0.3675     0.2360     2.1860   -27.2130    -1.0553     1.0000     1.0000   141.5744     0.6832     1.0000     0.3168     2.0861 
   1405.50     0.5230     0.3435     0.0010     0.2712     0.0586     0.4130     0.2765     2.1030   -27.4100    -1.2682     1.0000     1.0000   141.5844     0.7070     1.0000     0.2930     2.0000 
   1405.75     0.4780     0.3554     0.0010     0.2988     0.0599     0.3988     0.3040     2.0830   -27.6230    -1.4972     1.0000     1.0000   141.5943     0.7006     1.0000     0.2994     2.0000 
   1406.00     0.4340     0.3196     0.0010     0.2435     0.0615     0.3625     0.2490     2.1430   -27.6950    -1.5851     1.0000     1.0000   141.6042     0.6927     1.0000     0.3073     2.0815 
   1406.25     0.3810     0.3190     0.0010     0.2462     0.0652     0.3348     0.2517     2.1440   -27.6450    -1.5511     1.0000     1.0000   141.6141     0.6739     1.0000     0.3261     2.0579 
   1406.50     0.3630     0.3149     0.0010     0.2530     0.0663     0.3245     0.2584     2.1510   -27.4440    -1.3661     1.0000     0.9900   141.6240     0.6684     1.0000     0.3316     2.0486 
   1406.75     0.3420     0.2923     0.0010     0.2602     0.0711     0.3026     0.2656     2.1890   -27.1800    -1.1180     1.0000     1.0000   141.6339     0.6445     1.0000     0.3555     2.0249 
   1407.00     0.3750     0.2595     0.0010     0.2595     0.0704     0.3076     0.2709     2.2440   -27.4280    -1.3820     1.0000     1.0000   141.6438     0.6480     1.0000     0.3520     2.0300 
   1407.25     0.3930     0.2405     0.0010     0.2405     0.0702     0.3104     0.2724     2.2760   -27.9320    -1.9019     1.0000     1.0000   141.6537     0.6490     1.0000     0.3510     2.0326 
   1407.50     0.4050     0.2315     0.0010     0.2315     0.0699     0.3133     0.2675     2.2910   -28.2930    -2.2789     1.0000     1.0000   141.6637     0.6507     1.0000     0.3493     2.0355 
   1407.75     0.4100     0.2327     0.0010     0.2327     0.0693     0.3162     0.2568     2.2890   -28.0100    -2.0119     1.0000     1.0000   141.6736     0.6534     1.0000     0.3466     2.0386 
   1408.00     0.3710     0.2494     0.0010     0.2456     0.0724     0.3016     0.2511     2.2610   -27.5210    -1.5388     1.0000     1.0000   141.6835     0.6380     1.0000     0.3620     2.0221 
   1408.25     0.3590     0.2869     0.0010     0.2398     0.0698     0.3089     0.2454     2.1980   -27.1730    -1.2068     1.0000     1.0000   141.6934     0.6508     1.0000     0.3492     2.0319 
   1408.50     0.3770     0.3125     0.0010     0.2482     0.0637     0.3297     0.2537     2.1550   -27.1980    -1.2477     1.0000     1.0000   141.7033     0.6817     1.0000     0.3183     2.0545 
   1408.75     0.3980     0.2958     0.0010     0.2611     0.0593     0.3342     0.2665     2.1830   -27.8440    -1.9097     1.0000     1.0000   141.7132     0.7033     1.0000     0.2967     2.0584 
   1409.00     0.3800     0.2821     0.0010     0.2627     0.0557     0.3190     0.2681     2.2060   -28.2790    -2.3607     1.0000     1.0000   141.7232     0.7213     1.0000     0.2787     2.0458 
   1409.25     0.3720     0.2827     0.0010     0.2336     0.0480     0.3147     0.2392     2.2050   -28.7340    -2.8316     0.9364     0.9707   141.7331     0.7601     0.9847     0.2399     2.0335 
   1409.50     0.3580     0.2476     0.0010     0.1971     0.0606     0.2936     0.2030     2.2640   -29.7590    -3.8726     0.8724     0.6972   141.7430     0.6972     0.9614     0.3028     1.8841 
   1409.75     0.3170     0.1548     0.2061     0.1548     0.1091     0.2403     0.1798     2.4200   -31.2300    -5.3595     0.5059     0.4546   141.7529     0.4546     0.7305     0.5454     1.8411 
   1410.00     0.2040     0.0696     0.0177     0.0696     0.0744     0.1453     0.1539     2.5630   -32.9540    -7.0995     0.6193     0.2853   141.7628     0.2853     0.7279     0.7147     1.9257 
   1410.25     0.1530     0.0351     0.0010     0.0351     0.0410     0.1009     0.1311     2.6210   -33.3750    -7.5365     1.0000     0.2308   141.7727     0.2308     1.0000     0.7692     2.0246 
   1410.50     0.1670     0.0440     0.0010     0.0440     0.0509     0.1131     0.1398     2.6060   -32.9280    -7.1054     0.8457     0.2328   141.7827     0.2328     0.8816     0.7672     1.9601 
   1410.75     0.2550     0.0720     0.0643     0.0720     0.0819     0.1810     0.1684     2.5590   -31.7580    -5.9514     0.5084     0.3496   141.7926     0.3496     0.6803     0.6504     1.8655 
   1411.00     0.2710     0.0964     0.1102     0.0964     0.0942     0.1968     0.1790     2.5180   -31.1190    -5.3283     0.5106     0.4663   141.8025     0.4663     0.7388     0.5337     1.8502 
   1411.25     0.2490     0.0988     0.1010     0.0988     0.0929     0.1829     0.1715     2.5140   -31.6650    -5.8903     0.5147     0.4461   141.8124     0.4461     0.7312     0.5539     1.8662 
   1411.50     0.2480     0.0875     0.1258     0.0875     0.0936     0.1797     0.1653     2.5330   -32.6190    -6.8603     0.4912     0.3357   141.8223     0.3357     0.6620     0.6643     1.8564 
   1411.75     0.2230     0.0780     0.0676     0.0780     0.0878     0.1605     0.1496     2.5490   -33.5940    -7.8512     0.5364     0.2552   141.8322     0.2552     0.6547     0.7448     1.8368 
   1412.00     0.1590     0.0577     0.0035     0.0577     0.0608     0.1091     0.1210     2.5830   -34.3500    -8.6232     0.7090     0.2207   141.8421     0.2207     0.7732     0.7793     1.8873 
   1412.25     0.1550     0.0458     0.0010     0.0458     0.0486     0.1041     0.1212     2.6030   -34.1340    -8.4231     0.7627     0.2446   141.8521     0.2446     0.8207     0.7554     1.9306 
   1412.50     0.1850     0.0619     0.0108     0.0619     0.0611     0.1298     0.1679     2.5760   -33.2860    -7.5911     0.5844     0.3194   141.8620     0.3194     0.7171     0.6806     1.8932 
   1412.75     0.2410     0.0946     0.1198     0.0946     0.0889     0.1765     0.1928     2.5210   -32.1570    -6.4781     0.4717     0.4338   141.8719     0.4338     0.7009     0.5662     1.8695 
   1413.00     0.2730     0.1083     0.1902     0.1083     0.1031     0.2009     0.2053     2.4980   -31.7960    -6.1330     0.4879     0.4744   141.8818     0.4744     0.7308     0.5256     1.8575 
   1413.25     0.2870     0.1095     0.2458     0.1095     0.1085     0.2101     0.2062     2.4960   -31.5410    -5.8940     0.4814     0.4573   141.8917     0.4573     0.7185     0.5427     1.8611 
   1413.50     0.2340     0.1107     0.2519     0.1107     0.1024     0.1751     0.1859     2.4940   -32.0590    -6.4279     0.4492     0.4055   141.9016     0.4055     0.6726     0.5945     1.8432 
   1413.75     0.2390     0.1077     0.3855     0.1077     0.1077     0.1780     0.1832     2.4990   -32.9670    -7.3519     0.4220     0.3314   141.9115     0.3314     0.6136     0.6686     1.8158 
