~Version Information Section
VERS.          2.0                                     : CWLS LOG ASCII Standard
WRAP.          NO                                      : One line per depth step
~Well Information Section
STRT.M         1250.0000                               : Start Depth
STOP.M         1650.0000                               : Stop Depth
STEP.M         0.2500                                  : Step
NULL.          -999.0000                               : Null Value
COMP.                                                  : Company
WELL.          DO-974                                  : Well
FLD .          BANANO                                  : Field
LOC .                                                  : Location
LOC1.                                                  : Location 1
CTRY.                                                  : Country
STAT.                                                  : State
CNTY.                                                  : County
API .          23191                                   : API Number
SECT.                                                  : Section
TOWN.                                                  : Township
RNGE.                                                  : Range
PDAT.                                                  : Perm Datum
EPD .                                                  : Elevation
LMF .                                                  : Log Measured From
DMF .                                                  : Drill Measured From
APD .                                                  : Above Perm Datum
EKB .                                                  : Elev-Kelly Bushing.
EDF .                                                  : Elev-Drill Floor
EGL .                                                  : Elev-Ground Level
SRVC.          Oil&Gas,Inc.                            : Service Company
DATE.          13 Jun 2015 @ 17:27                     : Date
~Curve Information Section
DEPTH.M                                                : 1
PCNSS.                                                 : 2
PDSS.dec                                               : 3
PERM.                                                  : 4
PHIDEDIT.                                              : 5
PHIE.dec                                               : 6
PHIND.dec                                              : 7
PSSS.pu                                                : 8
RHOB.g/cm3                                             : 9
SP.UNKNOWN                                             : 10
SPBL.MV                                                : 11
SW.dec                                                 : 12
SWBAV.                                                 : 13
T.dec                                                  : 14
VCLAY.                                                 : 15
VSILT.                                                 : 16
VSS.                                                   : 17
W.                                                     : 18
~A Log Data Section
# ...
   1537.00     0.1590     0.0220     0.0010     0.0220     0.0335     0.1036     0.1079     2.6430   -26.2770    -8.7989     0.9077     0.2164   146.7997     0.2164     0.8585     0.7836     2.0036 
   1537.25     0.1270     0.0083     0.0010     0.0083     0.0207     0.0764     0.0790     2.6660   -26.7610    -9.2796     1.0000     0.1593   146.8096     0.1593     1.0000     0.8407     2.0000 
   1537.50     0.1150     0.0143     0.0010     0.0143     0.0230     0.0674     0.0789     2.6560   -26.3780    -8.8933     1.0000     0.1555   146.8195     0.1555     1.0000     0.8445     2.0000 
   1537.75     0.1540     0.0375     0.0020     0.0375     0.0446     0.1021     0.1076     2.6170   -25.1300    -7.6420     0.8189     0.2141   146.8295     0.2141     0.7136     0.7859     1.9543 
   1538.00     0.1870     0.0464     0.0022     0.0464     0.0490     0.1286     0.1280     2.6020   -23.9550    -6.4637     0.7083     0.3255   146.8394     0.3255     0.7740     0.6745     1.9520 
   1538.25     0.2060     0.0363     0.0010     0.0363     0.0376     0.1406     0.1373     2.6190   -22.9170    -5.4224     0.7839     0.4140   146.8493     0.4140     0.8734     0.5860     1.9713 
   1538.50     0.1930     0.0429     0.0010     0.0429     0.0389     0.1324     0.1486     2.6080   -22.0700    -4.5721     0.7595     0.4236   146.8592     0.4236     0.8614     0.5764     1.9585 
   1538.75     0.2080     0.0554     0.0034     0.0554     0.0518     0.1455     0.1604     2.5870   -21.7890    -4.2878     0.6410     0.4257   146.8691     0.4257     0.7939     0.5743     1.9196 
   1539.00     0.2330     0.0375     0.0014     0.0375     0.0440     0.1594     0.1551     2.6170   -22.0040    -4.4995     0.6717     0.4193   146.8790     0.4193     0.8094     0.5807     1.9332 
   1539.25     0.1890     0.0131     0.0010     0.0131     0.0182     0.1245     0.1328     2.6580   -22.2180    -4.7102     0.9505     0.3865   146.8890     0.3865     1.0000     0.6135     2.0390 
   1539.50     0.1420     0.0179     0.0010     0.0179     0.0084     0.0898     0.1080     2.6500   -22.4420    -4.9309     1.0000     0.4206   146.8989     0.4206     1.0000     0.5794     2.0000 
   1539.75     0.1870     0.0458     0.0010     0.0458     0.0302     0.1285     0.1182     2.6030   -22.8750    -5.3606     0.9344     0.5331   146.9088     0.5331     0.9694     0.4669     1.9994 
   1540.00     0.2160     0.0625     0.0010     0.0625     0.0485     0.1525     0.1570     2.5750   -23.3240    -5.8063     0.8449     0.5456   146.9187     0.5456     0.9295     0.4544     1.9598 
   1540.25     0.2410     0.0637     0.0021     0.0637     0.0575     0.1700     0.1691     2.5730   -23.4950    -5.9740     0.7394     0.5175   146.9286     0.5175     0.8743     0.4825     1.9183 
   1540.50     0.2660     0.0530     0.0047     0.0530     0.0571     0.1840     0.1698     2.5910   -23.2240    -5.6997     0.6506     0.4914   146.9385     0.4914     0.8223     0.5086     1.8941 
   1540.75     0.2310     0.0238     0.0010     0.0238     0.0340     0.1555     0.1562     2.6400   -22.9160    -5.3884     0.7074     0.4079   146.9485     0.4079     0.8267     0.5921     1.9520 
   1541.00     0.1510    -0.0107     0.0010    -0.0107     0.0014     0.0927     0.1112     2.6980   -22.8450    -5.3141     1.0000     0.2710   146.9584     0.2710     1.0000     0.7290     2.0000 
   1541.25     0.1350    -0.0083     0.0010    -0.0083     0.0000     0.0806     0.1024     2.6940   -22.8460    -5.3118     1.0000     0.2698   146.9683     0.2698     1.0000     0.7302     2.0000 
   1541.50     0.1600     0.0149     0.0010     0.0149     0.0131     0.1033     0.1327     2.6550   -22.9270    -5.3895     0.9904     0.3862   146.9782     0.3862     1.0000     0.6138     2.0776 
   1541.75     0.2120     0.0399     0.0010     0.0399     0.0399     0.1455     0.1480     2.6130   -23.1120    -5.5712     0.7373     0.4346   146.9881     0.4346     0.8515     0.5654     1.9463 
   1542.00     0.2030     0.0363     0.0010     0.0363     0.0405     0.1385     0.1354     2.6190   -23.3380    -5.7938     0.7282     0.3734   146.9980     0.3734     0.8297     0.6266     1.9607 
   1542.25     0.1920     0.0351     0.0010     0.0351     0.0372     0.1303     0.1416     2.6210   -23.6370    -6.0895     0.7317     0.3720   147.0079     0.3720     0.8315     0.6280     1.9622 
   1542.50     0.1930     0.0411     0.0010     0.0411     0.0372     0.1321     0.1573     2.6110   -24.0120    -6.4612     0.7259     0.4274   147.0179     0.4274     0.8430     0.5726     1.9471 
   1542.75     0.1860     0.0405     0.0010     0.0405     0.0283     0.1268     0.1570     2.6120   -24.5240    -6.9699     0.8363     0.5050   147.0278     0.5050     0.9190     0.4950     1.9619 
   1543.00     0.1850     0.0351     0.0010     0.0351     0.0217     0.1252     0.1390     2.6210   -25.2670    -7.7096     0.8995     0.5301   147.0377     0.5301     0.9528     0.4699     2.0001 
   1543.25     0.1950     0.0304     0.0010     0.0304     0.0180     0.1317     0.1301     2.6290   -25.6930    -8.1323     0.9196     0.5553   147.0476     0.5553     1.0000     0.4447     2.0238 
   1543.50     0.1980     0.0315     0.0010     0.0315     0.0174     0.1340     0.1460     2.6270   -25.1060    -7.5420     0.9003     0.5802   147.0575     0.5802     1.0000     0.4198     2.0272 
   1543.75     0.2250     0.0464     0.0010     0.0464     0.0375     0.1557     0.1653     2.6020   -24.2740    -6.7067     0.8449     0.5518   147.0674     0.5518     0.9305     0.4482     1.9712 
   1544.00     0.2170     0.0661     0.0122     0.0661     0.0629     0.1539     0.1479     2.5690   -24.5750    -7.0044     0.5834     0.4166   147.0773     0.4166     0.7569     0.5834     1.9059 
   1544.25     0.2050     0.0548     0.0108     0.0548     0.0622     0.1432     0.1281     2.5880   -25.4930    -7.9191     0.5924     0.2951   147.0873     0.2951     0.7127     0.7049     1.9153 
   1544.50     0.1250     0.0310     0.0010     0.0310     0.0340     0.0777     0.0967     2.6280   -26.4320    -8.8548     0.9453     0.2034   147.0972     0.2034     0.9564     0.7966     2.0121 
   1544.75     0.1070     0.0089     0.0010     0.0089     0.0179     0.0603     0.0657     2.6650   -27.4080    -9.8275     1.0000     0.1464   147.1071     0.1464     1.0000     0.8536     2.0000 
   1545.00     0.1000    -0.0012     0.0010    -0.0012     0.0061     0.0535     0.0914     2.6820   -28.3830   -10.7992     1.0000     0.1726   147.1170     0.1726     1.0000     0.8274     2.0000 
   1545.25     0.1370     0.0065     0.0010     0.0065     0.0118     0.0842     0.1333     2.6690   -28.3400   -10.7529     1.0000     0.2698   147.1269     0.2698     1.0000     0.7302     2.0973 
   1545.50     0.1670     0.0268     0.0010     0.0268     0.0239     0.1104     0.1580     2.6350   -27.9470   -10.3566     0.7669     0.3870   147.1368     0.3870     0.8571     0.6130     1.9773 
   1545.75     0.2240     0.0560     0.0114     0.0560     0.0609     0.1568     0.1741     2.5860   -27.5090    -9.9153     0.5752     0.3684   147.1468     0.3684     0.7317     0.6316     1.9116 
   1546.00     0.2160     0.0577     0.0092     0.0577     0.0589     0.1516     0.1317     2.5830   -27.4250    -9.8280     0.5851     0.3865   147.1567     0.3865     0.7454     0.6135     1.9151 
   1546.25     0.2500     0.0548     0.0218     0.0548     0.0643     0.1741     0.1565     2.5880   -27.5790    -9.9787     0.5225     0.3845   147.1666     0.3845     0.7061     0.6155     1.8930 
   1546.50     0.2670     0.0595     0.1490     0.0595     0.0868     0.1861     0.1846     2.5800   -27.7840   -10.1804     0.4328     0.2147   147.1765     0.2147     0.5546     0.7853     1.8302 
   1546.75     0.2130     0.0714     0.1784     0.0714     0.0909     0.1521     0.1640     2.5600   -28.2790   -10.6721     0.4334     0.1366   147.1864     0.1366     0.5108     0.8634     1.8188 
   1547.00     0.1280     0.0429     0.0018     0.0429     0.0525     0.0819     0.1429     2.6080   -29.0210   -11.4108     0.7187     0.1059   147.1963     0.1059     0.7484     0.8941     1.8993 
