~Version Information Section
VERS.          2.0                                     : CWLS LOG ASCII Standard
WRAP.          NO                                      : One line per depth step
~Well Information Section
STRT.M         1250.0000                               : Start Depth
STOP.M         1650.0000                               : Stop Depth
STEP.M         0.2500                                  : Step
NULL.          -999.0000                               : Null Value
COMP.                                                  : Company
WELL.          DO-974                                  : Well
FLD .          BANANO                                  : Field
LOC .                                                  : Location
LOC1.                                                  : Location 1
CTRY.                                                  : Country
STAT.                                                  : State
CNTY.                                                  : County
API .          23191                                   : API Number
SECT.                                                  : Section
TOWN.                                                  : Township
RNGE.                                                  : Range
PDAT.                                                  : Perm Datum
EPD .                                                  : Elevation
LMF .                                                  : Log Measured From
DMF .                                                  : Drill Measured From
APD .                                                  : Above Perm Datum
EKB .                                                  : Elev-Kelly Bushing.
EDF .                                                  : Elev-Drill Floor
EGL .                                                  : Elev-Ground Level
SRVC.          Oil&Gas,Inc.                            : Service Company
DATE.          13 Jun 2015 @ 17:27                     : Date
~Curve Information Section
DEPTH.M                                                : 1
PCNSS.                                                 : 2
PDSS.dec                                               : 3
PERM.                                                  : 4
PHIDEDIT.                                              : 5
PHIE.dec                                               : 6
PHIND.dec                                              : 7
PSSS.pu                                                : 8
RHOB.g/cm3                                             : 9
SP.UNKNOWN                                             : 10
SPBL.MV                                                : 11
SW.dec                                                 : 12
SWBAV.                                                 : 13
T.dec                                                  : 14
VCLAY.                                                 : 15
VSILT.                                                 : 16
VSS.                                                   : 17
W.                                                     : 18
~A Log Data Section
# ...
   1639.50     0.1850     0.0327     0.0010     0.0327     0.0340     0.1248     0.1453     2.6250   -18.3740   -10.3156     0.8567     0.3699   150.8649     0.3699     0.9097     0.6301     2.0241 
   1639.75     0.1960     0.0345     0.0010     0.0345     0.0406     0.1331     0.1493     2.6220   -18.5900   -10.5614     0.7820     0.3390   150.8749     0.3390     0.8559     0.6610     1.9720 
   1640.00     0.2080     0.0399     0.0030     0.0399     0.0530     0.1426     0.1447     2.6130   -19.0950   -11.0962     0.6676     0.2763   150.8848     0.2763     0.7594     0.7237     1.9214 
   1640.25     0.1890     0.0339     0.0059     0.0339     0.0509     0.1279     0.1164     2.6230   -19.9770   -12.0080     0.7370     0.1993   150.8947     0.1993     0.6538     0.8007     1.9371 
   1640.50     0.1400     0.0143     0.0010     0.0143     0.0289     0.0877     0.0849     2.6560   -20.1180   -12.1788     1.0000     0.1518   150.9046     0.1518     0.9695     0.8482     2.0479 
   1640.75     0.1220    -0.0018     0.0010    -0.0018     0.0141     0.0710     0.0658     2.6830   -19.5030   -11.5935     1.0000     0.1330   150.9145     0.1330     1.0000     0.8670     2.0000 
   1641.00     0.1200    -0.0018     0.0010    -0.0018     0.0119     0.0694     0.0694     2.6830   -18.7690   -10.8893     1.0000     0.1523   150.9244     0.1523     1.0000     0.8477     2.0000 
   1641.25     0.1530     0.0125     0.0010     0.0125     0.0204     0.0976     0.1001     2.6590   -18.0520   -10.2021     1.0000     0.2654   150.9344     0.2654     1.0000     0.7346     2.0458 
   1641.50     0.1990     0.0173     0.0010     0.0173     0.0277     0.1323     0.1345     2.6510   -17.3910    -9.5709     0.7857     0.3409   150.9443     0.3409     0.8588     0.6591     1.9682 
   1641.75     0.2180     0.0149     0.0010     0.0149     0.0291     0.1451     0.1382     2.6550   -16.7580    -8.9676     0.7317     0.3521   150.9542     0.3521     0.8261     0.6479     1.9601 
   1642.00     0.1750     0.0196     0.0010     0.0196     0.0351     0.1153     0.1101     2.6470   -17.2070    -9.4464     0.8236     0.2171   150.9641     0.2171     0.8619     0.7829     1.9790 
   1642.25     0.1310     0.0357     0.0011     0.0357     0.0432     0.0833     0.0902     2.6200   -18.7340   -11.0032     0.7637     0.1556   150.9740     0.1556     0.7378     0.8444     1.9556 
   1642.50     0.1440     0.0518     0.0264     0.0518     0.0600     0.0963     0.0928     2.5930   -19.8810   -12.1800     0.5486     0.1396   150.9839     0.1396     0.5387     0.8604     1.8916 
   1642.75     0.1690     0.0613     0.1538     0.0613     0.0743     0.1175     0.1072     2.5770   -20.3530   -12.6818     0.4457     0.1243   150.9938     0.1243     0.4352     0.8757     1.8570 
   1643.00     0.1840     0.0685     0.3434     0.0685     0.0821     0.1302     0.1249     2.5650   -20.0970   -12.4555     0.4129     0.1378   151.0038     0.1378     0.4049     0.8622     1.8388 
   1643.25     0.1940     0.0655     0.2180     0.0655     0.0786     0.1371     0.1349     2.5700   -19.2180   -11.6063     0.4399     0.1756   151.0137     0.1756     0.4566     0.8244     1.8430 
   1643.50     0.1880     0.0405     0.0113     0.0405     0.0538     0.1283     0.1329     2.6120   -18.1640   -10.5821     0.5925     0.2217   151.0236     0.2217     0.6228     0.7783     1.9106 
   1643.75     0.1730     0.0190     0.0010     0.0190     0.0272     0.1137     0.1249     2.6480   -17.0940    -9.5419     0.7752     0.2966   151.0335     0.2966     0.8419     0.7034     1.9722 
   1644.00     0.1850     0.0214     0.0010     0.0214     0.0252     0.1229     0.1271     2.6440   -16.3390    -8.8167     0.7437     0.3704   151.0434     0.3704     0.8387     0.6296     1.9633 
   1644.25     0.2210     0.0310     0.0010     0.0310     0.0360     0.1501     0.1399     2.6280   -15.8000    -8.3074     0.6826     0.4226   151.0533     0.4226     0.8167     0.5774     1.9304 
   1644.50     0.2320     0.0417     0.0012     0.0417     0.0440     0.1595     0.1414     2.6100   -15.3350    -7.8722     0.6845     0.4537   151.0632     0.4537     0.8276     0.5463     1.9228 
   1644.75     0.2240     0.0458     0.0013     0.0458     0.0456     0.1549     0.1296     2.6030   -14.9040    -7.4710     0.6917     0.4522   151.0732     0.4522     0.8311     0.5478     1.9215 
   1645.00     0.2050     0.0446     0.0016     0.0446     0.0445     0.1414     0.1233     2.6050   -14.5350    -7.1318     0.6612     0.4059   151.0831     0.4059     0.7987     0.5941     1.9347 
   1645.25     0.2150     0.0530     0.0025     0.0530     0.0481     0.1500     0.1309     2.5910   -14.2640    -6.8906     0.6420     0.4639   151.0930     0.4639     0.8081     0.5361     1.9035 
   1645.50     0.2120     0.0613     0.0139     0.0613     0.0568     0.1495     0.1348     2.5770   -14.0260    -6.6823     0.5166     0.4309   151.1029     0.4309     0.7249     0.5691     1.8786 
   1645.75     0.1730     0.0476     0.0043     0.0476     0.0473     0.1183     0.1127     2.6000   -13.8940    -6.5801     0.5716     0.3199   151.1128     0.3199     0.7086     0.6801     1.9096 
   1646.00     0.1490     0.0357     0.0010     0.0357     0.0359     0.0979     0.0894     2.6200   -13.8260    -6.5419     0.7034     0.2833   151.1227     0.2833     0.7875     0.7167     1.9498 
   1646.25     0.1460     0.0363     0.0010     0.0363     0.0345     0.0956     0.0944     2.6190   -13.7610    -6.5067     0.7011     0.2975   151.1327     0.2975     0.7900     0.7025     1.9500 
   1646.50     0.1580     0.0345     0.0010     0.0345     0.0320     0.1047     0.1097     2.6220   -13.1890    -5.9645     0.6886     0.3397   151.1426     0.3397     0.7944     0.6603     1.9483 
   1646.75     0.1940     0.0256     0.0010     0.0256     0.0313     0.1301     0.1218     2.6370   -12.2820    -5.0872     0.7105     0.3604   151.1525     0.3604     0.8148     0.6396     1.9561 
   1647.00     0.2100     0.0256     0.0010     0.0256     0.0349     0.1415     0.1221     2.6370   -11.5200    -4.3550     0.7255     0.3597   151.1624     0.3597     0.8243     0.6403     1.9600 
   1647.25     0.1690     0.0417     0.0010     0.0417     0.0347     0.1143     0.1190     2.6100   -12.2250    -5.0898     0.7019     0.4006   151.1723     0.4006     0.8213     0.5994     1.9539 
   1647.50     0.1700     0.0554     0.0010     0.0554     0.0352     0.1173     0.1256     2.5870   -13.3640    -6.2586     0.7397     0.5176   151.1822     0.5176     0.8744     0.4824     1.9305 
   1647.75     0.1930     0.0577     0.0010     0.0577     0.0370     0.1350     0.1319     2.5830   -13.6550    -6.5794     0.7105     0.5761   151.1921     0.5761     0.8773     0.4239     1.9370 
   1648.00     0.1890     0.0476     0.0010     0.0476     0.0376     0.1303     0.1185     2.6000   -13.5760    -6.5301     0.6754     0.4705   151.2021     0.4705     0.8281     0.5295     1.9144 
   1648.25     0.1430     0.0321     0.0010     0.0321     0.0247     0.0926     0.1018     2.6260   -12.9730    -5.9569     0.7802     0.3637   151.2120     0.3637     0.8602     0.6363     1.9799 
   1648.50     0.1430     0.0345     0.0010     0.0345     0.0283     0.0930     0.1147     2.6220   -11.9420    -4.9557     0.7627     0.3447   151.2219     0.3447     0.8445     0.6553     1.9723 
   1648.75     0.1810     0.0542     0.0031     0.0542     0.0445     0.1254     0.1347     2.5890   -10.8610    -3.9045     0.5811     0.4293   151.2318     0.4293     0.7609     0.5707     1.9004 
   1649.00     0.2130     0.0512     0.0016     0.0512     0.0418     0.1483     0.1417     2.5940    -9.8770    -2.9503     0.6336     0.5151   151.2417     0.5151     0.8223     0.4849     1.8950 
   1649.25     0.1860     0.0417     0.0010     0.0417     0.0245     0.1270     0.1431     2.6100    -8.9380    -2.0410     0.7055     0.5581   151.2516     0.5581     0.8699     0.4419     1.9422 
   1649.50     0.2080     0.0357     0.0010     0.0357     0.0159     0.1419     0.1489     2.6200    -7.9990    -1.1318     0.7449     0.6590   151.2616     0.6590     1.0000     0.3410     1.9915 
