~Version Information Section
VERS.          2.0                                     : CWLS LOG ASCII Standard
WRAP.          NO                                      : One line per depth step
~Well Information Section
STRT.M         1250.0000                               : Start Depth
STOP.M         1650.0000                               : Stop Depth
STEP.M         0.2500                                  : Step
NULL.          -999.0000                               : Null Value
COMP.                                                  : Company
WELL.          DO-974                                  : Well
FLD .          BANANO                                  : Field
LOC .                                                  : Location
LOC1.                                                  : Location 1
CTRY.                                                  : Country
STAT.                                                  : State
CNTY.                                                  : County
API .          23191                                   : API Number
SECT.                                                  : Section
TOWN.                                                  : Township
RNGE.                                                  : Range
PDAT.                                                  : Perm Datum
EPD .                                                  : Elevation
LMF .                                                  : Log Measured From
DMF .                                                  : Drill Measured From
APD .                                                  : Above Perm Datum
EKB .                                                  : Elev-Kelly Bushing.
EDF .                                                  : Elev-Drill Floor
EGL .                                                  : Elev-Ground Level
SRVC.          Oil&Gas,Inc.                            : Service Company
DATE.          13 Jun 2015 @ 17:27                     : Date
~Curve Information Section
DEPTH.M                                                : 1
PCNSS.                                                 : 2
PDSS.dec                                               : 3
PERM.                                                  : 4
PHIDEDIT.                                              : 5
PHIE.dec                                               : 6
PHIND.dec                                              : 7
PSSS.pu                                                : 8
RHOB.g/cm3                                             : 9
SP.UNKNOWN                                             : 10
SPBL.MV                                                : 11
SW.dec                                                 : 12
SWBAV.                                                 : 13
T.dec                                                  : 14
VCLAY.                                                 : 15
VSILT.                                                 : 16
VSS.                                                   : 17
W.                                                     : 18
~A Log Data Section
# ...
   1557.50     0.1850     0.0208     0.0010     0.0208     0.0148     0.1228     0.1412     2.6450   -21.7160    -3.9672     0.9730     0.4828   147.6128     0.4828     1.0000     0.5172     2.0418 
   1557.75     0.1950     0.0304     0.0010     0.0304     0.0240     0.1317     0.1536     2.6290   -21.4590    -3.7069     0.9475     0.4872   147.6227     0.4872     0.9731     0.5128     2.0010 
   1558.00     0.2680     0.0661     0.0042     0.0661     0.0650     0.1881     0.1816     2.5690   -21.4650    -3.7096     0.7300     0.5221   147.6326     0.5221     0.8646     0.4779     1.9141 
   1558.25     0.2300     0.0935     0.0198     0.0935     0.0744     0.1686     0.1867     2.5230   -21.5200    -3.7613     0.6879     0.5600   147.6425     0.5600     0.8265     0.4400     1.9071 
   1558.50     0.1610     0.0202     0.0010     0.0202     0.0035     0.1048     0.1484     2.6460   -21.5770    -3.8150     1.0000     0.5449   147.6524     0.5449     1.0000     0.4551     2.0000 
   1558.75     0.1410    -0.0018     0.0010    -0.0018     0.0000     0.0863     0.1144     2.6830   -21.2320    -3.4667     1.0000     0.4954   147.6623     0.4954     1.0000     0.5046     2.0000 
   1559.00     0.2190     0.0060     0.0010     0.0060     0.0142     0.1442     0.1348     2.6700   -19.0600    -1.2914     1.0000     0.4440   147.6723     0.4440     1.0000     0.5560     2.0706 
   1559.25     0.2620     0.0345     0.0010     0.0345     0.0423     0.1777     0.1712     2.6220   -18.2450    -0.4731     0.7875     0.4859   147.6822     0.4859     0.8907     0.5141     1.9389 
   1559.50     0.2470     0.0369     0.0010     0.0369     0.0197     0.1685     0.1838     2.6180   -19.7790    -2.0038     0.7245     0.7248   147.6921     0.7248     1.0000     0.2752     1.9877 
   1559.75     0.2360     0.0262     0.0010     0.0262     0.0079     0.1592     0.1716     2.6360   -19.8430    -2.0645     0.9992     0.8284   147.7020     0.7366     1.0000     0.2634     2.0997 
   1560.00     0.2250     0.0327     0.0010     0.0327     0.0184     0.1531     0.1665     2.6250   -18.7960    -1.0142     0.9095     0.9028   147.7119     0.6469     1.0000     0.3531     2.0489 
   1560.25     0.2280     0.0446     0.0010     0.0446     0.0327     0.1574     0.1866     2.6050   -17.6810     0.1041     1.0000     0.8879   147.7218     0.5978     1.0000     0.4022     2.0483 
   1560.50     0.3050     0.0625     0.0010     0.0625     0.0543     0.2098     0.2129     2.5750   -17.2980     0.4904     0.8924     0.9435   147.7318     0.7048     0.9682     0.2952     2.0231 
   1560.75     0.3100     0.0536     0.0010     0.0536     0.0426     0.2106     0.2001     2.5900   -18.9400    -1.1483     0.7641     0.8962   147.7417     0.7708     0.9459     0.2292     1.9979 
   1561.00     0.1310     0.0339     0.0010     0.0339     0.0020     0.0831     0.1331     2.6230   -18.8030    -1.0080     1.0000     0.6606   147.7516     0.6067     1.0000     0.3933     2.0000 
   1561.25     0.1510     0.0429     0.0010     0.0429     0.0294     0.1005     0.1161     2.6080   -17.9580    -0.1597     0.8507     0.4248   147.7615     0.4248     0.9141     0.5752     1.9888 
   1561.50     0.1850     0.0613     0.0010     0.0613     0.0486     0.1297     0.1416     2.5770   -17.7460     0.0556     0.7548     0.4558   147.7714     0.4558     0.8665     0.5442     1.9390 
   1561.75     0.2000     0.0565     0.0010     0.0565     0.0322     0.1399     0.1618     2.5850   -17.8820    -0.0771     0.8425     0.6372   147.7813     0.6372     0.9428     0.3628     2.0041 
   1562.00     0.1800     0.0363     0.0010     0.0363     0.0207     0.1217     0.1757     2.6190   -18.1650    -0.3568     1.0000     0.8049   147.7912     0.5398     1.0000     0.4602     2.0539 
   1562.25     0.3090     0.0560     0.0010     0.0560     0.0519     0.2106     0.1762     2.5860   -18.7670    -0.9667     0.9400     0.8363   147.8012     0.6839     0.9810     0.3161     2.0351 
   1562.50     0.2930     0.0702     0.0010     0.0702     0.0595     0.2045     0.1750     2.5620   -21.2140    -3.4217     0.9196     0.8969   147.8111     0.6834     0.9745     0.3166     2.0219 
   1562.75     0.2040     0.0482     0.0010     0.0482     0.0269     0.1413     0.1386     2.5990   -21.3560    -3.5716     0.9074     0.7488   147.8210     0.6344     0.9661     0.3656     2.0320 
   1563.00     0.1100     0.0125     0.0010     0.0125     0.0000     0.0631     0.0963     2.6590   -20.8030    -3.0265     1.0000     0.4728   147.8309     0.4728     1.0000     0.5272     2.0000 
   1563.25     0.0770    -0.0262     0.0010    -0.0262     0.0000     0.0331     0.0746     2.7240   -20.8920    -3.1235     1.0000     0.2767   147.8408     0.2767     1.0000     0.7233     2.0000 
   1563.50     0.0700    -0.0387     0.0010    -0.0387     0.0000     0.0267     0.0549     2.7450   -21.5710    -3.8104     1.0000     0.1240   147.8507     0.1240     1.0000     0.8760     2.0000 
   1563.75     0.0900    -0.0167     0.0010    -0.0167     0.0040     0.0439     0.0392     2.7080   -22.1050    -4.3524     1.0000     0.0357   147.8606     0.0357     1.0000     0.9643     2.0000 
   1564.00     0.1270    -0.0024     0.0010    -0.0024     0.0238     0.0750     0.0596     2.6840   -22.5600    -4.8153     1.0000     0.0308   147.8706     0.0308     1.0000     0.9692     2.0000 
   1564.25     0.1390    -0.0042     0.0010    -0.0042     0.0181     0.0843     0.0846     2.6870   -21.6490    -3.9123     1.0000     0.1100   147.8805     0.1100     1.0000     0.8900     2.0000 
   1564.50     0.1650    -0.0030     0.0010    -0.0030     0.0109     0.1044     0.1201     2.6850   -20.4570    -2.7282     1.0000     0.2671   147.8904     0.2671     1.0000     0.7329     2.0969 
   1564.75     0.2250     0.0173     0.0010     0.0173     0.0135     0.1502     0.1520     2.6510   -19.3860    -1.6651     0.8997     0.5672   147.9003     0.5672     1.0000     0.4328     2.0453 
   1565.00     0.2650     0.0411     0.0010     0.0411     0.0224     0.1810     0.1695     2.6110   -19.2490    -1.5361     0.7189     0.8009   147.9102     0.7766     0.9372     0.2234     1.9875 
   1565.25     0.2380     0.0458     0.0010     0.0458     0.0253     0.1644     0.1847     2.6030   -19.7270    -2.0220     0.7943     0.8794   147.9201     0.7176     0.9419     0.2824     2.0112 
   1565.50     0.2490     0.0524     0.0010     0.0524     0.0352     0.1730     0.1983     2.5920   -19.4780    -1.7810     0.8605     0.9288   147.9301     0.6903     0.9568     0.3097     2.0228 
   1565.75     0.2530     0.0577     0.0010     0.0577     0.0424     0.1767     0.2129     2.5830   -18.6130    -0.9239     0.9124     0.8900   147.9400     0.6659     0.9707     0.3341     2.0278 
   1566.00     0.2760     0.0571     0.0010     0.0571     0.0471     0.1912     0.2225     2.5840   -17.8580    -0.1768     0.9403     0.9106   147.9499     0.6658     0.9800     0.3342     2.0332 
   1566.25     0.3090     0.0565     0.0010     0.0565     0.0532     0.2108     0.2309     2.5850   -17.3260     0.3472     0.9586     1.0000   147.9598     0.6748     0.9865     0.3252     2.0373 
   1566.50     0.3260     0.0542     0.0010     0.0542     0.0542     0.2197     0.2380     2.5890   -17.0760     0.5893     0.9544     0.9812   147.9697     0.6853     0.9857     0.3147     2.0387 
   1566.75     0.2690     0.0500     0.0010     0.0500     0.0420     0.1853     0.1999     2.5960   -16.9200     0.7373     0.9806     0.8490   147.9796     0.6428     0.9931     0.3572     2.0438 
   1567.00     0.2280     0.0446     0.0010     0.0446     0.0322     0.1574     0.1550     2.6050   -17.4940     0.1554     1.0000     0.7769   147.9895     0.6036     1.0000     0.3964     2.0477 
   1567.25     0.2360     0.0446     0.0010     0.0446     0.0301     0.1628     0.1579     2.6050   -18.5530    -0.9115     0.9303     0.7646   147.9995     0.6472     0.9754     0.3528     2.0404 
   1567.50     0.2530     0.0476     0.0010     0.0476     0.0316     0.1746     0.1755     2.6000   -19.3840    -1.7505     0.8456     0.7133   148.0094     0.6994     0.9536     0.3006     2.0228 
