~Version Information Section
VERS.          2.0                                     : CWLS LOG ASCII Standard
WRAP.          NO                                      : One line per depth step
~Well Information Section
STRT.M         1250.0000                               : Start Depth
STOP.M         1650.0000                               : Stop Depth
STEP.M         0.2500                                  : Step
NULL.          -999.0000                               : Null Value
COMP.                                                  : Company
WELL.          DO-974                                  : Well
FLD .          BANANO                                  : Field
LOC .                                                  : Location
LOC1.                                                  : Location 1
CTRY.                                                  : Country
STAT.                                                  : State
CNTY.                                                  : County
API .          23191                                   : API Number
SECT.                                                  : Section
TOWN.                                                  : Township
RNGE.                                                  : Range
PDAT.                                                  : Perm Datum
EPD .                                                  : Elevation
LMF .                                                  : Log Measured From
DMF .                                                  : Drill Measured From
APD .                                                  : Above Perm Datum
EKB .                                                  : Elev-Kelly Bushing.
EDF .                                                  : Elev-Drill Floor
EGL .                                                  : Elev-Ground Level
SRVC.          Oil&Gas,Inc.                            : Service Company
DATE.          13 Jun 2015 @ 17:27                     : Date
~Curve Information Section
DEPTH.M                                                : 1
PCNSS.                                                 : 2
PDSS.dec                                               : 3
PERM.                                                  : 4
PHIDEDIT.                                              : 5
PHIE.dec                                               : 6
PHIND.dec                                              : 7
PSSS.pu                                                : 8
RHOB.g/cm3                                             : 9
SP.UNKNOWN                                             : 10
SPBL.MV                                                : 11
SW.dec                                                 : 12
SWBAV.                                                 : 13
T.dec                                                  : 14
VCLAY.                                                 : 15
VSILT.                                                 : 16
VSS.                                                   : 17
W.                                                     : 18
~A Log Data Section
# ...
   1608.75     0.1660     0.0119     0.0010     0.0119     0.0078     0.1073     0.1082     2.6600   -19.1270    -5.5118     1.0000     0.4350   149.6454     0.4350     1.0000     0.5650     2.0999 
   1609.00     0.1810     0.0119     0.0010     0.0119     0.0114     0.1185     0.0953     2.6600   -18.8120    -5.2265     1.0000     0.4325   149.6553     0.4325     1.0000     0.5675     2.0913 
   1609.25     0.2160     0.0381     0.0010     0.0381     0.0337     0.1479     0.1116     2.6160   -18.8010    -5.2453     0.8337     0.4991   149.6652     0.4991     0.9167     0.5009     1.9537 
   1609.50     0.2260     0.0560     0.0010     0.0560     0.0450     0.1582     0.1498     2.5860   -18.8730    -5.3471     0.8170     0.5535   149.6751     0.5535     0.9183     0.4465     1.9565 
   1609.75     0.2150     0.0494     0.0010     0.0494     0.0339     0.1493     0.1412     2.5970   -18.7430    -5.2469     0.8609     0.5932   149.6850     0.5932     0.9434     0.4068     1.9943 
   1610.00     0.2170     0.0387     0.0010     0.0387     0.0240     0.1487     0.1404     2.6150   -18.4200    -4.9537     0.8718     0.6162   149.6950     0.6162     0.9508     0.3838     2.0172 
   1610.25     0.2220     0.0274     0.0010     0.0274     0.0185     0.1501     0.1489     2.6340   -18.0810    -4.6444     0.8737     0.5915   149.7049     0.5915     1.0000     0.4085     2.0183 
   1610.50     0.2030     0.0155     0.0010     0.0155     0.0108     0.1348     0.1486     2.6540   -17.8270    -4.4202     0.9891     0.5265   149.7148     0.5265     1.0000     0.4735     2.0909 
   1610.75     0.1780     0.0131     0.0010     0.0131     0.0114     0.1165     0.1163     2.6580   -17.7960    -4.4190     0.9851     0.4351   149.7247     0.4351     1.0000     0.5649     2.0858 
   1611.00     0.1520     0.0149     0.0010     0.0149     0.0116     0.0971     0.0902     2.6550   -17.9770    -4.6298     0.9922     0.3828   149.7346     0.3828     1.0000     0.6172     2.0888 
   1611.25     0.1500     0.0137     0.0010     0.0137     0.0107     0.0954     0.0892     2.6570   -18.3970    -5.0795     1.0000     0.3776   149.7445     0.3776     1.0000     0.6224     2.0955 
   1611.50     0.1720     0.0137     0.0010     0.0137     0.0128     0.1121     0.1049     2.6570   -18.8610    -5.5733     0.9808     0.4101   149.7544     0.4101     1.0000     0.5899     2.0762 
   1611.75     0.2030     0.0256     0.0010     0.0256     0.0274     0.1366     0.1358     2.6370   -19.1510    -5.8931     0.8084     0.4273   149.7644     0.4273     0.8903     0.5727     1.9759 
   1612.00     0.1980     0.0417     0.0011     0.0417     0.0424     0.1358     0.1202     2.6100   -19.3670    -6.1389     0.6812     0.3865   149.7743     0.3865     0.8044     0.6135     1.9463 
   1612.25     0.1920     0.0548     0.0055     0.0548     0.0542     0.1337     0.1185     2.5880   -19.7810    -6.5827     0.6063     0.3528   149.7842     0.3528     0.7452     0.6472     1.9212 
   1612.50     0.1960     0.0554     0.0167     0.0554     0.0609     0.1368     0.1233     2.5870   -20.4290    -7.2604     0.5282     0.2923   149.7941     0.2923     0.6661     0.7077     1.8951 
   1612.75     0.1940     0.0464     0.0096     0.0464     0.0544     0.1337     0.1185     2.6020   -20.8050    -7.6662     0.5521     0.2820   149.8040     0.2820     0.6710     0.7180     1.9025 
   1613.00     0.1580     0.0298     0.0010     0.0298     0.0331     0.1040     0.0945     2.6300   -20.5200    -7.4110     0.7507     0.2858   149.8139     0.2858     0.8219     0.7142     1.9645 
   1613.25     0.1380     0.0226     0.0010     0.0226     0.0247     0.0872     0.0857     2.6420   -19.9130    -6.8338     0.9465     0.2680   149.8239     0.2680     0.9608     0.7320     2.0226 
   1613.50     0.1480     0.0327     0.0010     0.0327     0.0316     0.0966     0.0932     2.6250   -19.2700    -6.2206     0.8418     0.3032   149.8338     0.3032     0.8898     0.6968     1.9927 
   1613.75     0.1800     0.0405     0.0010     0.0405     0.0411     0.1224     0.1230     2.6120   -18.4100    -5.3903     0.6992     0.3455   149.8437     0.3455     0.8031     0.6545     1.9506 
   1614.00     0.1770     0.0399     0.0010     0.0399     0.0406     0.1200     0.1265     2.6130   -17.7830    -4.7931     0.6895     0.3375   149.8536     0.3375     0.7943     0.6625     1.9473 
   1614.25     0.1660     0.0232     0.0010     0.0232     0.0280     0.1091     0.1070     2.6410   -18.1410    -5.1809     0.8396     0.3059   149.8635     0.3059     0.8886     0.6941     1.9934 
   1614.50     0.1400     0.0125     0.0010     0.0125     0.0133     0.0874     0.0924     2.6590   -18.4970    -5.5667     1.0000     0.3131   149.8734     0.3131     1.0000     0.6869     2.0881 
   1614.75     0.1790     0.0220     0.0010     0.0220     0.0219     0.1186     0.0936     2.6430   -18.0180    -5.1175     0.8423     0.3971   149.8833     0.3971     0.9049     0.6029     2.0024 
   1615.00     0.2070     0.0274     0.0010     0.0274     0.0289     0.1397     0.1094     2.6340   -17.1410    -4.2702     0.8352     0.4356   149.8933     0.4356     0.9070     0.5644     1.9794 
   1615.25     0.1830     0.0244     0.0010     0.0244     0.0194     0.1219     0.1279     2.6390   -15.9910    -3.1500     0.9242     0.4572   149.9032     0.4572     1.0000     0.5428     2.0082 
   1615.50     0.1760     0.0298     0.0010     0.0298     0.0197     0.1176     0.1377     2.6300   -15.2940    -2.4828     0.8852     0.4826   149.9131     0.4826     1.0000     0.5174     1.9896 
   1615.75     0.2020     0.0339     0.0010     0.0339     0.0303     0.1373     0.1334     2.6230   -15.2880    -2.5066     0.7973     0.4652   149.9230     0.4652     0.8916     0.5348     1.9560 
   1616.00     0.1800     0.0214     0.0010     0.0214     0.0180     0.1193     0.1112     2.6440   -15.4330    -2.6814     0.8929     0.4392   149.9329     0.4392     1.0000     0.5608     2.0065 
   1616.25     0.1730     0.0107     0.0010     0.0107     0.0097     0.1124     0.1041     2.6620   -15.3780    -2.6561     1.0000     0.4212   149.9428     0.4212     1.0000     0.5788     2.0981 
   1616.50     0.1950     0.0256     0.0010     0.0256     0.0230     0.1309     0.1213     2.6370   -15.1560    -2.4639     0.9102     0.4574   149.9527     0.4574     0.9513     0.5426     1.9990 
   1616.75     0.2260     0.0470     0.0010     0.0470     0.0426     0.1565     0.1427     2.6010   -14.9300    -2.2677     0.8241     0.5023   149.9627     0.5023     0.9125     0.4977     1.9445 
   1617.00     0.2440     0.0607     0.0010     0.0607     0.0515     0.1714     0.1547     2.5780   -14.6520    -2.0195     0.8217     0.5668   149.9726     0.5668     0.9228     0.4332     1.9573 
   1617.25     0.2320     0.0613     0.0010     0.0613     0.0420     0.1634     0.1556     2.5770   -14.2590    -1.6563     0.8390     0.6497   149.9825     0.6497     0.9436     0.3503     1.9974 
   1617.50     0.2230     0.0518     0.0010     0.0518     0.0313     0.1553     0.1450     2.5930   -13.8060    -1.2669     0.8784     0.7105   149.9924     0.6641     0.9591     0.3359     2.0254 
   1617.75     0.2170     0.0500     0.0010     0.0500     0.0342     0.1508     0.1398     2.5960   -13.3540    -0.8785     0.9869     0.7797   150.0023     0.5998     0.9948     0.4002     2.0379 
   1618.00     0.2220     0.0583     0.0010     0.0583     0.0451     0.1559     0.1518     2.5820   -13.5270    -1.1151     1.0000     0.8169   150.0122     0.5624     1.0000     0.4376     2.0237 
   1618.25     0.2530     0.0702     0.0010     0.0702     0.0596     0.1793     0.1688     2.5620   -14.3020    -1.9537     1.0000     0.8111   150.0222     0.5813     1.0000     0.4187     2.0171 
   1618.50     0.1960     0.0726     0.0010     0.0726     0.0576     0.1399     0.1515     2.5580   -15.1610    -2.8763     0.9763     0.7775   150.0321     0.4814     0.9877     0.5186     1.9831 
   1618.75     0.1460     0.0530     0.0010     0.0530     0.0360     0.0981     0.1022     2.5910   -15.3860    -3.1649     0.9888     0.6696   150.0420     0.4269     0.9936     0.5731     2.0241 
