~Version Information Section
VERS.          2.0                                     : CWLS LOG ASCII Standard
WRAP.          NO                                      : One line per depth step
~Well Information Section
STRT.M         1250.0000                               : Start Depth
STOP.M         1650.0000                               : Stop Depth
STEP.M         0.2500                                  : Step
NULL.          -999.0000                               : Null Value
COMP.                                                  : Company
WELL.          DO-974                                  : Well
FLD .          BANANO                                  : Field
LOC .                                                  : Location
LOC1.                                                  : Location 1
CTRY.                                                  : Country
STAT.                                                  : State
CNTY.                                                  : County
API .          23191                                   : API Number
SECT.                                                  : Section
TOWN.                                                  : Township
RNGE.                                                  : Range
PDAT.                                                  : Perm Datum
EPD .                                                  : Elevation
LMF .                                                  : Log Measured From
DMF .                                                  : Drill Measured From
APD .                                                  : Above Perm Datum
EKB .                                                  : Elev-Kelly Bushing.
EDF .                                                  : Elev-Drill Floor
EGL .                                                  : Elev-Ground Level
SRVC.          Oil&Gas,Inc.                            : Service Company
DATE.          13 Jun 2015 @ 17:27                     : Date
~Curve Information Section
DEPTH.M                                                : 1
PCNSS.                                                 : 2
PDSS.dec                                               : 3
PERM.                                                  : 4
PHIDEDIT.                                              : 5
PHIE.dec                                               : 6
PHIND.dec                                              : 7
PSSS.pu                                                : 8
RHOB.g/cm3                                             : 9
SP.UNKNOWN                                             : 10
SPBL.MV                                                : 11
SW.dec                                                 : 12
SWBAV.                                                 : 13
T.dec                                                  : 14
VCLAY.                                                 : 15
VSILT.                                                 : 16
VSS.                                                   : 17
W.                                                     : 18
~A Log Data Section
# ...
   1455.00     0.1610     0.0512     0.0056     0.0512     0.0594     0.1096     0.1138     2.5940   -30.6060    -8.2928     0.6484     0.1846   143.5475     0.1846     0.7133     0.8154     1.8775 
   1455.25     0.1620     0.0405     0.0012     0.0405     0.0500     0.1087     0.1136     2.6120   -29.9210    -7.6599     0.7407     0.1989   143.5575     0.1989     0.7923     0.8011     1.9105 
   1455.50     0.1650     0.0333     0.0010     0.0333     0.0430     0.1099     0.1261     2.6240   -29.2080    -6.9989     0.8246     0.2228   143.5674     0.2228     0.8637     0.7772     1.9513 
   1455.75     0.1850     0.0351     0.0010     0.0351     0.0467     0.1252     0.1449     2.6210   -28.6490    -6.4919     0.7860     0.2467   143.5773     0.2467     0.8388     0.7533     1.9656 
   1456.00     0.2210     0.0554     0.0129     0.0554     0.0675     0.1546     0.1699     2.5870   -28.3080    -6.2029     0.6109     0.2804   143.5872     0.2804     0.7200     0.7196     1.9228 
   1456.25     0.2470     0.0899     0.1389     0.0899     0.0942     0.1796     0.1908     2.5290   -28.3000    -6.2469     0.4818     0.3478   143.5971     0.3478     0.6620     0.6522     1.8791 
   1456.50     0.2600     0.1095     0.4164     0.1095     0.1103     0.1927     0.1744     2.4960   -29.1190    -7.1180     0.4239     0.3714   143.6070     0.3714     0.6379     0.6286     1.8345 
   1456.75     0.1890     0.0768     0.0458     0.0768     0.0742     0.1355     0.1352     2.5510   -30.4480    -8.4990     0.5012     0.3125   143.6170     0.3125     0.6571     0.6875     1.8536 
   1457.00     0.1640     0.0393     0.0012     0.0393     0.0505     0.1101     0.0976     2.6140   -32.3650   -10.4680     0.7454     0.1884   143.6269     0.1884     0.7933     0.8116     1.9188 
   1457.25     0.1480     0.0286     0.0010     0.0286     0.0398     0.0960     0.0848     2.6320   -32.8520   -11.0070     0.8993     0.1743   143.6368     0.1743     0.9168     0.8257     1.9528 
   1457.50     0.1680     0.0429     0.0023     0.0429     0.0536     0.1137     0.0983     2.6080   -31.8570   -10.0640     0.7024     0.1942   143.6467     0.1942     0.7602     0.8058     1.8946 
   1457.75     0.1940     0.0542     0.0103     0.0542     0.0643     0.1351     0.1230     2.5890   -29.6910    -7.9501     0.6135     0.2385   143.6566     0.2385     0.7057     0.7615     1.8814 
   1458.00     0.2570     0.0542     0.0228     0.0542     0.0676     0.1785     0.1538     2.5890   -28.1120    -6.4231     0.5420     0.3597   143.6665     0.3597     0.7068     0.6403     1.8952 
   1458.25     0.2720     0.0577     0.0038     0.0577     0.0581     0.1889     0.1745     2.5830   -27.3290    -5.6921     0.6825     0.5361   143.6765     0.5361     0.8527     0.4639     1.8959 
   1458.50     0.2720     0.0601     0.0100     0.0601     0.0674     0.1894     0.1872     2.5790   -27.9610    -6.3761     0.6400     0.4524   143.6864     0.4524     0.8028     0.5476     1.9076 
   1458.75     0.2280     0.0571     0.0021     0.0571     0.0561     0.1598     0.1828     2.5840   -28.9450    -7.4121     0.7276     0.4435   143.6963     0.4435     0.8484     0.5565     1.9390 
   1459.00     0.2130     0.0565     0.0053     0.0565     0.0587     0.1493     0.1499     2.5850   -28.8540    -7.3732     0.6492     0.3701   143.7062     0.3701     0.7790     0.6299     1.9355 
   1459.25     0.1950     0.0524     0.0039     0.0524     0.0572     0.1355     0.1238     2.5920   -28.0910    -6.6622     0.6713     0.3056   143.7161     0.3056     0.7717     0.6944     1.9294 
   1459.50     0.1710     0.0464     0.0010     0.0464     0.0477     0.1166     0.1149     2.6020   -27.6590    -6.2822     0.7441     0.2996   143.7260     0.2996     0.8208     0.7004     1.9413 
   1459.75     0.1750     0.0613     0.0044     0.0613     0.0568     0.1221     0.1384     2.5770   -27.2940    -5.9692     0.6561     0.3379   143.7359     0.3379     0.7723     0.6621     1.9093 
   1460.00     0.2490     0.0780     0.0547     0.0780     0.0805     0.1783     0.1598     2.5490   -27.4790    -6.2062     0.5201     0.4026   143.7458     0.4026     0.7133     0.5974     1.8720 
   1460.25     0.2280     0.0786     0.0359     0.0786     0.0731     0.1641     0.1377     2.5480   -27.9660    -6.7453     0.5245     0.4387   143.7558     0.4387     0.7331     0.5613     1.8825 
   1460.50     0.1730     0.0452     0.0019     0.0452     0.0542     0.1179     0.1054     2.6040   -28.2840    -7.1153     0.7250     0.2213   143.7657     0.2213     0.7859     0.7787     1.9450 
   1460.75     0.1540     0.0298     0.0010     0.0298     0.0421     0.1009     0.0855     2.6300   -27.8300    -6.7133     0.8661     0.1736   143.7756     0.1736     0.8894     0.8264     1.9446 
   1461.00     0.1430     0.0333     0.0010     0.0333     0.0440     0.0928     0.0798     2.6240   -27.3960    -6.3313     0.8451     0.1566   143.7855     0.1566     0.8694     0.8434     1.9311 
   1461.25     0.1300     0.0470     0.0014     0.0470     0.0518     0.0841     0.0950     2.6010   -27.0640    -6.0513     0.7382     0.1559   143.7954     0.1559     0.7790     0.8441     1.9011 
   1461.50     0.1580     0.0321     0.0010     0.0321     0.0400     0.1043     0.1272     2.6260   -26.5780    -5.6174     0.8574     0.2283   143.8053     0.2283     0.8900     0.7717     1.9829 
   1461.75     0.2340     0.0554     0.0137     0.0554     0.0682     0.1636     0.1602     2.5870   -25.5050    -4.5964     0.6087     0.3052   143.8153     0.3052     0.7282     0.6948     1.9222 
   1462.00     0.2400     0.0833     0.0611     0.0833     0.0839     0.1734     0.1794     2.5400   -24.5650    -3.7084     0.5266     0.3890   143.8252     0.3890     0.7108     0.6110     1.9008 
   1462.25     0.2730     0.0827     0.0881     0.0827     0.0895     0.1950     0.1823     2.5410   -24.3490    -3.5444     0.5132     0.4038   143.8351     0.4038     0.7097     0.5962     1.8940 
   1462.50     0.2920     0.0839     0.1953     0.0839     0.0973     0.2071     0.1827     2.5390   -24.6970    -3.9444     0.4554     0.3743   143.8450     0.3743     0.6592     0.6257     1.8738 
   1462.75     0.2080     0.0863     0.0876     0.0863     0.0818     0.1514     0.1403     2.5350   -25.5910    -4.8905     0.4689     0.3584   143.8549     0.3584     0.6592     0.6416     1.8723 
   1463.00     0.1110     0.0518     0.0010     0.0518     0.0453     0.0690     0.0877     2.5930   -25.9920    -5.3435     0.7962     0.2226   143.8648     0.2226     0.8416     0.7774     1.9339 
   1463.25     0.1090     0.0208     0.0010     0.0208     0.0220     0.0634     0.0596     2.6450   -25.7490    -5.1525     1.0000     0.2091   143.8748     0.2091     1.0000     0.7909     2.0000 
   1463.50     0.1500     0.0244     0.0010     0.0244     0.0323     0.0970     0.0922     2.6390   -25.4680    -4.9235     1.0000     0.2279   143.8847     0.2279     1.0000     0.7721     2.0124 
   1463.75     0.2350     0.0589     0.0296     0.0589     0.0739     0.1650     0.1375     2.5810   -25.3580    -4.8655     0.5535     0.2752   143.8946     0.2752     0.6764     0.7248     1.8550 
   1464.00     0.2120     0.0839     0.0580     0.0839     0.0826     0.1538     0.1499     2.5390   -25.3390    -4.8986     0.5257     0.3377   143.9045     0.3377     0.6859     0.6623     1.8758 
   1464.25     0.2180     0.0881     0.0307     0.0881     0.0796     0.1590     0.1575     2.5320   -25.0610    -4.6726     0.5852     0.4243   143.9144     0.4243     0.7612     0.5757     1.9049 
   1464.50     0.2390     0.0821     0.0027     0.0821     0.0669     0.1725     0.1768     2.5420   -24.6820    -4.3456     0.7705     0.5682   143.9243     0.5682     0.9009     0.4318     1.9122 
   1464.75     0.2550     0.0750     0.0029     0.0750     0.0661     0.1817     0.1808     2.5540   -25.0910    -4.8066     0.7601     0.5545   143.9342     0.5545     0.8931     0.4455     1.9064 
   1465.00     0.2740     0.0774     0.0519     0.0774     0.0845     0.1944     0.1542     2.5500   -25.5910    -5.3586     0.5506     0.4153   143.9442     0.4153     0.7372     0.5847     1.8963 
