~Version Information Section
VERS.          2.0                                     : CWLS LOG ASCII Standard
WRAP.          NO                                      : One line per depth step
~Well Information Section
STRT.M         1250.0000                               : Start Depth
STOP.M         1650.0000                               : Stop Depth
STEP.M         0.2500                                  : Step
NULL.          -999.0000                               : Null Value
COMP.                                                  : Company
WELL.          DO-974                                  : Well
FLD .          BANANO                                  : Field
LOC .                                                  : Location
LOC1.                                                  : Location 1
CTRY.                                                  : Country
STAT.                                                  : State
CNTY.                                                  : County
API .          23191                                   : API Number
SECT.                                                  : Section
TOWN.                                                  : Township
RNGE.                                                  : Range
PDAT.                                                  : Perm Datum
EPD .                                                  : Elevation
LMF .                                                  : Log Measured From
DMF .                                                  : Drill Measured From
APD .                                                  : Above Perm Datum
EKB .                                                  : Elev-Kelly Bushing.
EDF .                                                  : Elev-Drill Floor
EGL .                                                  : Elev-Ground Level
SRVC.          Oil&Gas,Inc.                            : Service Company
DATE.          13 Jun 2015 @ 17:27                     : Date
~Curve Information Section
DEPTH.M                                                : 1
PCNSS.                                                 : 2
PDSS.dec                                               : 3
PERM.                                                  : 4
PHIDEDIT.                                              : 5
PHIE.dec                                               : 6
PHIND.dec                                              : 7
PSSS.pu                                                : 8
RHOB.g/cm3                                             : 9
SP.UNKNOWN                                             : 10
SPBL.MV                                                : 11
SW.dec                                                 : 12
SWBAV.                                                 : 13
T.dec                                                  : 14
VCLAY.                                                 : 15
VSILT.                                                 : 16
VSS.                                                   : 17
W.                                                     : 18
~A Log Data Section
# ...
   1588.25     0.1180     0.0185     0.0010     0.0185     0.0275     0.0704     0.0706     2.6490   -24.6390    -8.5294     1.0000     0.1484   148.8323     0.1484     1.0000     0.8516     2.0000 
   1588.50     0.1540    -0.0036     0.0010    -0.0036     0.0146     0.0960     0.0736     2.6860   -23.7850    -7.7074     1.0000     0.1917   148.8423     0.1917     1.0000     0.8083     2.0000 
   1588.75     0.1770    -0.0036     0.0010    -0.0036     0.0092     0.1131     0.0933     2.6860   -22.9260    -6.8803     1.0000     0.3111   148.8522     0.3111     1.0000     0.6889     2.0999 
   1589.00     0.2090     0.0083     0.0010     0.0083     0.0180     0.1378     0.1222     2.6660   -22.1260    -6.1123     0.8183     0.3972   148.8621     0.3972     1.0000     0.6028     1.9976 
   1589.25     0.2120     0.0333     0.0010     0.0333     0.0349     0.1443     0.1339     2.6240   -21.9660    -5.9843     0.7065     0.4334   148.8720     0.4334     0.8337     0.5666     1.9386 
   1589.50     0.1670     0.0488     0.0010     0.0488     0.0395     0.1139     0.1151     2.5980   -22.0450    -6.0952     0.6849     0.4037   148.8819     0.4037     0.8121     0.5963     1.9446 
   1589.75     0.1570     0.0423     0.0010     0.0423     0.0373     0.1051     0.1086     2.6090   -21.9450    -6.0272     0.8074     0.3452   148.8918     0.3452     0.8739     0.6548     1.9779 
   1590.00     0.2170     0.0381     0.0010     0.0381     0.0408     0.1486     0.1320     2.6160   -21.6200    -5.7342     0.7469     0.4204   148.9017     0.4204     0.8533     0.5796     1.9514 
   1590.25     0.2550     0.0440     0.0010     0.0440     0.0393     0.1751     0.1619     2.6060   -21.2290    -5.3751     0.8148     0.5862   148.9117     0.5862     0.9233     0.4138     1.9716 
   1590.50     0.2200     0.0470     0.0010     0.0470     0.0326     0.1524     0.1597     2.6010   -20.8370    -5.0151     0.8548     0.6002   148.9216     0.6002     0.9420     0.3998     1.9963 
   1590.75     0.2090     0.0464     0.0010     0.0464     0.0285     0.1445     0.1498     2.6020   -20.5300    -4.7400     0.8775     0.6127   148.9315     0.6127     0.9525     0.3873     2.0127 
   1591.00     0.2310     0.0464     0.0010     0.0464     0.0298     0.1598     0.1577     2.6020   -20.2430    -4.4850     0.8477     0.6541   148.9414     0.6541     0.9473     0.3459     2.0127 
   1591.25     0.2510     0.0429     0.0010     0.0429     0.0259     0.1723     0.1687     2.6080   -19.6350    -3.9090     0.7858     0.7170   148.9513     0.7170     0.9394     0.2830     2.0074 
   1591.50     0.2480     0.0470     0.0010     0.0470     0.0302     0.1712     0.1724     2.6010   -18.9370    -3.2429     0.7955     0.6977   148.9612     0.6977     0.9382     0.3023     2.0045 
   1591.75     0.2410     0.0667     0.0010     0.0667     0.0470     0.1706     0.1687     2.5680   -18.2930    -2.6309     0.8056     0.6626   148.9711     0.6626     0.9344     0.3374     1.9858 
   1592.00     0.2380     0.0655     0.0010     0.0655     0.0455     0.1683     0.1625     2.5700   -17.6770    -2.0469     0.8066     0.6619   148.9811     0.6619     0.9346     0.3381     1.9870 
   1592.25     0.2360     0.0524     0.0010     0.0524     0.0321     0.1643     0.1567     2.5920   -17.2270    -1.6288     0.7973     0.6928   148.9910     0.6928     0.9377     0.3072     2.0024 
   1592.50     0.2380     0.0470     0.0010     0.0470     0.0296     0.1646     0.1599     2.6010   -16.8790    -1.3128     0.8227     0.6794   149.0009     0.6794     0.9431     0.3206     2.0110 
   1592.75     0.2610     0.0488     0.0010     0.0488     0.0347     0.1800     0.1744     2.5980   -16.7280    -1.1938     0.8390     0.6947   149.0108     0.6947     0.9509     0.3053     2.0163 
   1593.00     0.2780     0.0423     0.0010     0.0423     0.0323     0.1893     0.1824     2.6090   -16.7570    -1.2547     0.8560     0.7719   149.0207     0.7072     0.9578     0.2928     2.0280 
   1593.25     0.2660     0.0321     0.0010     0.0321     0.0237     0.1797     0.1780     2.6260   -16.8130    -1.3427     0.8844     0.8393   149.0306     0.6852     0.9636     0.3148     2.0417 
   1593.50     0.2220     0.0345     0.0010     0.0345     0.0194     0.1514     0.1601     2.6220   -16.7790    -1.3406     0.9116     0.7515   149.0406     0.6438     1.0000     0.3562     2.0473 
   1593.75     0.2100     0.0321     0.0010     0.0321     0.0163     0.1427     0.1535     2.6260   -16.4510    -1.0446     0.9306     0.6688   149.0505     0.6283     1.0000     0.3717     2.0567 
   1594.00     0.2310     0.0280     0.0010     0.0280     0.0151     0.1563     0.1591     2.6330   -15.9310    -0.5566     0.9131     0.6582   149.0604     0.6582     1.0000     0.3418     2.0587 
   1594.25     0.2600     0.0363     0.0010     0.0363     0.0254     0.1768     0.1906     2.6190   -15.5070    -0.1645     0.8736     0.7312   149.0703     0.6876     0.9605     0.3124     2.0365 
   1594.50     0.2770     0.0488     0.0010     0.0488     0.0381     0.1900     0.2005     2.5980   -15.5010    -0.1883     0.8789     0.8082   149.0802     0.6970     0.9633     0.3030     2.0287 
   1594.75     0.2720     0.0476     0.0010     0.0476     0.0379     0.1867     0.1800     2.6000   -15.8140    -0.5311     0.9179     0.8398   149.0901     0.6761     0.9734     0.3239     2.0367 
   1595.00     0.2470     0.0429     0.0010     0.0429     0.0325     0.1697     0.1640     2.6080   -15.8690    -0.6159     0.9762     0.8088   149.1001     0.6321     0.9913     0.3679     2.0489 
   1595.25     0.2290     0.0405     0.0010     0.0405     0.0289     0.1573     0.1550     2.6120   -15.5290    -0.3057     1.0000     0.7482   149.1100     0.6069     1.0000     0.3931     2.0530 
   1595.50     0.2360     0.0423     0.0010     0.0423     0.0300     0.1623     0.1558     2.6090   -15.1320     0.0616     0.9692     0.6981   149.1199     0.6279     0.9885     0.3721     2.0481 
   1595.75     0.2390     0.0423     0.0010     0.0423     0.0285     0.1643     0.1531     2.6090   -15.2430    -0.0792     0.9236     0.6811   149.1298     0.6520     0.9734     0.3480     2.0417 
   1596.00     0.2220     0.0375     0.0010     0.0375     0.0203     0.1520     0.1432     2.6170   -15.8700    -0.7360     0.8790     0.6747   149.1397     0.6602     0.9589     0.3398     2.0378 
   1596.25     0.2030     0.0393     0.0010     0.0393     0.0202     0.1390     0.1360     2.6140   -16.5360    -1.4318     0.8639     0.6290   149.1496     0.6290     0.9495     0.3710     2.0239 
   1596.50     0.1960     0.0417     0.0010     0.0417     0.0296     0.1344     0.1300     2.6100   -17.1650    -2.0906     0.8573     0.5255   149.1595     0.5255     0.9323     0.4745     1.9736 
   1596.75     0.1890     0.0411     0.0010     0.0411     0.0370     0.1291     0.1236     2.6110   -17.4290    -2.3843     0.7430     0.4199   149.1694     0.4199     0.8509     0.5801     1.9558 
   1597.00     0.1860     0.0363     0.0010     0.0363     0.0379     0.1261     0.1226     2.6190   -17.3510    -2.3361     0.7553     0.3603   149.1794     0.3603     0.8435     0.6397     1.9687 
   1597.25     0.1910     0.0405     0.0010     0.0405     0.0393     0.1305     0.1349     2.6120   -17.6790    -2.6939     0.7060     0.3932   149.1893     0.3932     0.8216     0.6068     1.9546 
   1597.50     0.2140     0.0500     0.0010     0.0500     0.0433     0.1487     0.1579     2.5960   -18.7560    -3.8007     0.7390     0.4897   149.1992     0.4897     0.8668     0.5103     1.9236 
   1597.75     0.2350     0.0565     0.0010     0.0565     0.0399     0.1645     0.1695     2.5850   -19.9250    -4.9994     0.7558     0.6384   149.2091     0.6384     0.9117     0.3616     1.9673 
   1598.00     0.2170     0.0571     0.0010     0.0571     0.0382     0.1522     0.1438     2.5840   -20.6960    -5.8002     0.7905     0.6177   149.2190     0.6177     0.9199     0.3823     1.9746 
   1598.25     0.1780     0.0530     0.0010     0.0530     0.0332     0.1230     0.1207     2.5910   -21.0090    -6.1430     0.8505     0.5387   149.2289     0.5387     0.9311     0.4613     1.9723 
