~Version Information Section
VERS.          2.0                                     : CWLS LOG ASCII Standard
WRAP.          NO                                      : One line per depth step
~Well Information Section
STRT.M         1250.0000                               : Start Depth
STOP.M         1650.0000                               : Stop Depth
STEP.M         0.2500                                  : Step
NULL.          -999.0000                               : Null Value
COMP.                                                  : Company
WELL.          DO-974                                  : Well
FLD .          BANANO                                  : Field
LOC .                                                  : Location
LOC1.                                                  : Location 1
CTRY.                                                  : Country
STAT.                                                  : State
CNTY.                                                  : County
API .          23191                                   : API Number
SECT.                                                  : Section
TOWN.                                                  : Township
RNGE.                                                  : Range
PDAT.                                                  : Perm Datum
EPD .                                                  : Elevation
LMF .                                                  : Log Measured From
DMF .                                                  : Drill Measured From
APD .                                                  : Above Perm Datum
EKB .                                                  : Elev-Kelly Bushing.
EDF .                                                  : Elev-Drill Floor
EGL .                                                  : Elev-Ground Level
SRVC.          Oil&Gas,Inc.                            : Service Company
DATE.          13 Jun 2015 @ 17:27                     : Date
~Curve Information Section
DEPTH.M                                                : 1
PCNSS.                                                 : 2
PDSS.dec                                               : 3
PERM.                                                  : 4
PHIDEDIT.                                              : 5
PHIE.dec                                               : 6
PHIND.dec                                              : 7
PSSS.pu                                                : 8
RHOB.g/cm3                                             : 9
SP.UNKNOWN                                             : 10
SPBL.MV                                                : 11
SW.dec                                                 : 12
SWBAV.                                                 : 13
T.dec                                                  : 14
VCLAY.                                                 : 15
VSILT.                                                 : 16
VSS.                                                   : 17
W.                                                     : 18
~A Log Data Section
# ...
   1506.25     0.2140     0.0970     0.0028     0.0970     0.0742     0.1579     0.1583     2.5170   -20.8860    -3.8139     0.8024     0.5531   145.5802     0.5531     0.9117     0.4469     1.9372 
   1506.50     0.2290     0.1131     0.0017     0.1131     0.0772     0.1721     0.1758     2.4900   -21.2910    -4.2156     0.8484     0.6140   145.5901     0.6140     0.9415     0.3860     1.9561 
   1506.75     0.2340     0.0988     0.0010     0.0988     0.0719     0.1726     0.1910     2.5140   -20.9580    -3.8793     0.8971     0.6967   145.6000     0.6406     0.9630     0.3594     1.9909 
   1507.00     0.2470     0.0988     0.0010     0.0988     0.0715     0.1815     0.2038     2.5140   -20.6580    -3.5760     0.9172     0.7970   145.6099     0.6427     0.9704     0.3573     1.9939 
   1507.25     0.2580     0.0982     0.0010     0.0982     0.0698     0.1888     0.2099     2.5150   -19.9930    -2.9077     0.9250     0.8600   145.6198     0.6511     0.9739     0.3489     1.9970 
   1507.50     0.2550     0.0935     0.0010     0.0935     0.0670     0.1857     0.1910     2.5230   -18.9770    -1.8884     0.9009     0.8201   145.6297     0.6652     0.9668     0.3348     1.9999 
   1507.75     0.2430     0.0720     0.0010     0.0720     0.0535     0.1731     0.1796     2.5590   -18.9950    -1.9031     0.9340     0.7613   145.6396     0.6416     0.9764     0.3584     2.0172 
   1508.00     0.2090     0.0530     0.0010     0.0530     0.0386     0.1458     0.1778     2.5910   -19.3530    -2.2578     1.0000     0.6930   145.6496     0.5564     1.0000     0.4436     2.0297 
   1508.25     0.2210     0.0804     0.0010     0.0804     0.0596     0.1596     0.1821     2.5450   -20.2720    -3.1735     0.9613     0.6493   145.6595     0.5894     0.9841     0.4106     2.0005 
   1508.50     0.2470     0.1095     0.0010     0.1095     0.0676     0.1839     0.1897     2.4960   -21.2290    -4.1272     0.8992     0.6747   145.6694     0.6620     0.9659     0.3380     1.9860 
   1508.75     0.2390     0.1048     0.0010     0.1048     0.0697     0.1773     0.1865     2.5040   -21.6500    -4.5449     0.8972     0.7195   145.6793     0.6516     0.9642     0.3484     1.9876 
   1509.00     0.1970     0.0940     0.0010     0.0940     0.0690     0.1447     0.1656     2.5220   -21.5400    -4.4316     0.9153     0.7086   145.6892     0.5434     0.9613     0.4566     1.9669 
   1509.25     0.2180     0.0774     0.0010     0.0774     0.0613     0.1568     0.1708     2.5500   -21.0930    -3.9813     0.9974     0.7641   145.6991     0.5371     0.9988     0.4629     1.9906 
   1509.50     0.2500     0.1161     0.0010     0.1161     0.0904     0.1875     0.1919     2.4850   -20.7470    -3.6320     0.9545     1.0000   145.7091     0.5482     0.9794     0.4518     1.9614 
   1509.75     0.2930     0.1363     0.0010     0.1363     0.0783     0.2206     0.2327     2.4510   -20.4330    -3.3147     1.0000     1.0000   145.7190     0.6085     1.0000     0.3915     1.9689 
   1510.00     0.2620     0.1006     0.0010     0.1006     0.0876     0.1920     0.2133     2.5110   -20.5070    -3.3854     0.9851     0.7813   145.7289     0.5544     0.9934     0.4456     1.9805 
   1510.25     0.2380     0.0851     0.0010     0.0851     0.0707     0.1724     0.1985     2.5370   -21.9100    -4.7851     0.9992     0.5987   145.7388     0.5484     0.9997     0.4516     1.9895 
   1510.50     0.2410     0.0851     0.0010     0.0851     0.0730     0.1745     0.1998     2.5370   -22.6090    -5.4808     0.9318     0.5308   145.7487     0.5308     0.9680     0.4692     2.0013 
   1510.75     0.2480     0.0798     0.0016     0.0798     0.0747     0.1780     0.2058     2.5460   -23.2460    -6.1145     0.8455     0.4818   145.7586     0.4818     0.9199     0.5182     2.0109 
   1511.00     0.2570     0.0720     0.0030     0.0720     0.0735     0.1823     0.1884     2.5590   -23.8560    -6.7212     0.7926     0.4504   145.7686     0.4504     0.8860     0.5496     2.0152 
   1511.25     0.2620     0.0696     0.0068     0.0696     0.0753     0.1850     0.2088     2.5630   -24.4900    -7.3519     0.7284     0.4218   145.7785     0.4218     0.8429     0.5782     2.0117 
   1511.50     0.2520     0.0679     0.0092     0.0679     0.0775     0.1782     0.1975     2.5660   -25.2670    -8.1256     0.7103     0.3556   145.7884     0.3556     0.8133     0.6444     2.0064 
   1511.75     0.1940     0.0667     0.0020     0.0667     0.0699     0.1374     0.1728     2.5680   -25.7940    -8.6493     0.8097     0.2853   145.7983     0.2853     0.8640     0.7147     1.9989 
   1512.00     0.2200     0.0935     0.0618     0.0935     0.1034     0.1615     0.1640     2.5230   -26.1420    -8.9940     0.6271     0.2063   145.8082     0.2063     0.7041     0.7937     1.9043 
   1512.25     0.2530     0.1137     0.3835     0.1137     0.1285     0.1890     0.1699     2.4890   -26.0720    -8.9207     0.5100     0.1845   145.8181     0.1845     0.6004     0.8155     1.8625 
   1512.50     0.1840     0.0839     0.0237     0.0839     0.0864     0.1330     0.1675     2.5390   -25.8850    -8.7304     0.6545     0.2249   145.8280     0.2249     0.7322     0.7751     1.9134 
   1512.75     0.1760     0.0643     0.0040     0.0643     0.0637     0.1234     0.1480     2.5720   -25.0440    -7.8861     0.7144     0.2882   145.8380     0.2882     0.7967     0.7118     1.9349 
   1513.00     0.1880     0.0577     0.0030     0.0577     0.0596     0.1313     0.1586     2.5830   -24.3580    -7.1968     0.7156     0.3076   145.8479     0.3076     0.8031     0.6924     1.9433 
   1513.25     0.2060     0.0560     0.0032     0.0560     0.0597     0.1442     0.1786     2.5860   -24.0490    -6.8845     0.7093     0.3367   145.8578     0.3367     0.8072     0.6633     1.9430 
   1513.50     0.2250     0.0631     0.0029     0.0631     0.0609     0.1589     0.1923     2.5740   -23.4480    -6.2802     0.7286     0.4339   145.8677     0.4339     0.8464     0.5661     1.9671 
   1513.75     0.2440     0.0833     0.0013     0.0833     0.0714     0.1761     0.2024     2.5400   -22.7950    -5.6238     0.8460     0.5404   145.8776     0.5404     0.9292     0.4596     2.0021 
   1514.00     0.2600     0.1208     0.0012     0.1208     0.0780     0.1953     0.1928     2.4770   -22.1430    -4.9685     0.8735     0.6100   145.8875     0.6100     0.9507     0.3900     1.9805 
   1514.25     0.2270     0.0911     0.0034     0.0911     0.0772     0.1660     0.1727     2.5270   -22.9340    -5.7562     0.7989     0.5002   145.8974     0.5002     0.8995     0.4998     1.9956 
   1514.50     0.1950     0.0548     0.0010     0.0548     0.0557     0.1359     0.1404     2.5880   -24.0040    -6.8229     0.7898     0.3437   145.9074     0.3437     0.8620     0.6563     1.9642 
   1514.75     0.1910     0.0577     0.0021     0.0577     0.0607     0.1335     0.1458     2.5830   -24.6630    -7.4786     0.7606     0.3024   145.9173     0.3024     0.8330     0.6976     1.9511 
   1515.00     0.2210     0.0786     0.0342     0.0786     0.0840     0.1592     0.1772     2.5480   -25.1990    -8.0113     0.5983     0.2986   145.9272     0.2986     0.7183     0.7014     1.9075 
   1515.25     0.2490     0.0875     0.1017     0.0875     0.0970     0.1804     0.1895     2.5330   -25.2250    -8.0340     0.5357     0.2996   145.9371     0.2996     0.6748     0.7004     1.8964 
   1515.50     0.2670     0.0917     0.1704     0.0917     0.1068     0.1932     0.1901     2.5260   -25.2250    -8.0307     0.5190     0.2714   145.9470     0.2714     0.6496     0.7286     1.8813 
   1515.75     0.2690     0.1000     0.2334     0.1000     0.1117     0.1964     0.1857     2.5120   -24.9930    -7.7954     0.5021     0.2945   145.9569     0.2945     0.6487     0.7055     1.8770 
   1516.00     0.2630     0.1071     0.2178     0.1071     0.1096     0.1941     0.1859     2.5000   -24.3710    -7.1701     0.5011     0.3661   145.9669     0.3661     0.6838     0.6339     1.9008 
   1516.25     0.2610     0.0935     0.0380     0.0935     0.0920     0.1897     0.1982     2.5230   -23.9380    -6.7338     0.6292     0.4391   145.9768     0.4391     0.7920     0.5609     1.9696 
