~Version Information Section
VERS.          2.0                                     : CWLS LOG ASCII Standard
WRAP.          NO                                      : One line per depth step
~Well Information Section
STRT.M         1250.0000                               : Start Depth
STOP.M         1650.0000                               : Stop Depth
STEP.M         0.2500                                  : Step
NULL.          -999.0000                               : Null Value
COMP.                                                  : Company
WELL.          DO-974                                  : Well
FLD .          BANANO                                  : Field
LOC .                                                  : Location
LOC1.                                                  : Location 1
CTRY.                                                  : Country
STAT.                                                  : State
CNTY.                                                  : County
API .          23191                                   : API Number
SECT.                                                  : Section
TOWN.                                                  : Township
RNGE.                                                  : Range
PDAT.                                                  : Perm Datum
EPD .                                                  : Elevation
LMF .                                                  : Log Measured From
DMF .                                                  : Drill Measured From
APD .                                                  : Above Perm Datum
EKB .                                                  : Elev-Kelly Bushing.
EDF .                                                  : Elev-Drill Floor
EGL .                                                  : Elev-Ground Level
SRVC.          Oil&Gas,Inc.                            : Service Company
DATE.          13 Jun 2015 @ 17:27                     : Date
~Curve Information Section
DEPTH.M                                                : 1
PCNSS.                                                 : 2
PDSS.dec                                               : 3
PERM.                                                  : 4
PHIDEDIT.                                              : 5
PHIE.dec                                               : 6
PHIND.dec                                              : 7
PSSS.pu                                                : 8
RHOB.g/cm3                                             : 9
SP.UNKNOWN                                             : 10
SPBL.MV                                                : 11
SW.dec                                                 : 12
SWBAV.                                                 : 13
T.dec                                                  : 14
VCLAY.                                                 : 15
VSILT.                                                 : 16
VSS.                                                   : 17
W.                                                     : 18
~A Log Data Section
   1250.00     0.2940     0.0744     0.0010     0.0744     0.0677     0.2061     0.2229     2.5550   -34.2290    -2.1717     1.0000     1.0000   135.4171     0.6305     1.0000     0.3695     2.0283 
   1250.25     0.2930     0.0655     0.0010     0.0655     0.0608     0.2034     0.2253     2.5700   -34.4370    -2.4021     1.0000     1.0000   135.4270     0.6275     1.0000     0.3725     2.0372 
   1250.50     0.3060     0.0655     0.0010     0.0655     0.0625     0.2111     0.2376     2.5700   -34.7700    -2.7575     1.0000     1.0000   135.4369     0.6404     1.0000     0.3596     2.0383 
   1250.75     0.3060     0.0744     0.0010     0.0744     0.0695     0.2132     0.2452     2.5550   -35.1150    -3.1250     1.0000     1.0000   135.4469     0.6402     1.0000     0.3598     2.0298 
   1251.00     0.2970     0.0940     0.0010     0.0940     0.0730     0.2125     0.2393     2.5220   -35.4610    -3.4934     1.0000     1.0000   135.4568     0.6350     1.0000     0.3650     2.0106 
   1251.25     0.3190     0.0929     0.0010     0.0929     0.0695     0.2252     0.2378     2.5240   -35.5080    -3.5628     1.0000     0.9107   135.4667     0.6526     1.0000     0.3474     2.0152 
   1251.50     0.3220     0.0774     0.0010     0.0774     0.0700     0.2231     0.2368     2.5500   -35.3770    -3.4542     1.0000     0.8258   135.4766     0.6498     1.0000     0.3502     2.0289 
   1251.75     0.3180     0.0690     0.0010     0.0690     0.0675     0.2188     0.2378     2.5640   -35.1880    -3.2876     1.0000     0.8174   135.4865     0.6456     1.0000     0.3544     2.0362 
   1252.00     0.3130     0.0673     0.0010     0.0673     0.0655     0.2156     0.2394     2.5670   -34.8310    -2.9530     1.0000     0.8319   135.4964     0.6405     1.0000     0.3595     2.0377 
   1252.25     0.3070     0.0714     0.0010     0.0714     0.0679     0.2131     0.2376     2.5600   -34.4410    -2.5855     1.0000     0.8212   135.5063     0.6348     1.0000     0.3652     2.0332 
   1252.50     0.3020     0.0774     0.0010     0.0774     0.0718     0.2115     0.2411     2.5500   -34.0500    -2.2169     1.0000     0.8283   135.5163     0.6299     1.0000     0.3701     2.0268 
   1252.75     0.3010     0.0869     0.0010     0.0869     0.0740     0.2132     0.2441     2.5340   -33.9250    -2.1143     1.0000     0.8377   135.5262     0.6298     1.0000     0.3702     2.0176 
   1253.00     0.3150     0.0756     0.0010     0.0756     0.0724     0.2187     0.2469     2.5530   -34.0310    -2.2427     1.0000     1.0000   135.5361     0.6379     1.0000     0.3621     2.0303 
   1253.25     0.3160     0.0625     0.0010     0.0625     0.0630     0.2161     0.2495     2.5750   -34.1760    -2.4101     1.0000     1.0000   135.5460     0.6341     1.0000     0.3659     2.0435 
   1253.50     0.3150     0.0661     0.0010     0.0661     0.0653     0.2164     0.2466     2.5690   -34.6860    -2.9425     1.0000     0.9696   135.5559     0.6368     1.0000     0.3632     2.0395 
   1253.75     0.3120     0.0750     0.0010     0.0750     0.0711     0.2168     0.2405     2.5540   -35.3670    -3.6460     1.0000     0.9316   135.5658     0.6423     1.0000     0.3577     2.0301 
   1254.00     0.3100     0.0756     0.0010     0.0756     0.0705     0.2158     0.2353     2.5530   -35.7980    -4.0994     1.0000     1.0000   135.5758     0.6473     1.0000     0.3527     2.0288 
   1254.25     0.3140     0.0851     0.0010     0.0851     0.0685     0.2204     0.2353     2.5370   -35.9210    -4.2448     0.9963     1.0000   135.5857     0.6575     0.9987     0.3425     2.0204 
   1254.50     0.3150     0.0940     0.0010     0.0940     0.0681     0.2232     0.2447     2.5220   -35.9830    -4.3292     0.9989     1.0000   135.5956     0.6593     0.9996     0.3407     2.0132 
   1254.75     0.3130     0.0750     0.0010     0.0750     0.0707     0.2174     0.2533     2.5540   -36.0470    -4.4156     1.0000     0.8718   135.6055     0.6466     1.0000     0.3534     2.0299 
   1255.00     0.3110     0.0619     0.0010     0.0619     0.0609     0.2131     0.2549     2.5760   -36.1140    -4.5050     1.0000     0.8055   135.6154     0.6400     1.0000     0.3600     2.0426 
   1255.25     0.3150     0.0667     0.0010     0.0667     0.0645     0.2166     0.2482     2.5680   -36.1800    -4.5935     1.0000     0.8366   135.6253     0.6517     1.0000     0.3483     2.0371 
   1255.50     0.3190     0.0869     0.0010     0.0869     0.0659     0.2237     0.2434     2.5340   -36.1740    -4.6099     0.9806     0.9755   135.6352     0.6707     0.9936     0.3293     2.0183 
   1255.75     0.3070     0.1012     0.0010     0.1012     0.0653     0.2203     0.2374     2.5100   -35.8020    -4.2603     0.9661     0.9622   135.6452     0.6736     0.9889     0.3264     2.0055 
   1256.00     0.2750     0.0935     0.0010     0.0935     0.0715     0.1987     0.2302     2.5230   -35.3330    -3.8137     0.9633     0.8895   135.6551     0.6426     0.9869     0.3574     2.0070 
   1256.25     0.2730     0.0815     0.0010     0.0815     0.0681     0.1947     0.2331     2.5430   -35.0620    -3.5651     0.9742     0.7973   135.6650     0.6351     0.9906     0.3649     2.0172 
   1256.50     0.2920     0.0780     0.0010     0.0780     0.0681     0.2057     0.2346     2.5490   -34.9640    -3.4895     0.9730     0.7347   135.6749     0.6517     0.9906     0.3483     2.0232 
   1256.75     0.3170     0.1054     0.0010     0.1054     0.0637     0.2272     0.2382     2.5030   -34.9000    -3.4479     0.9665     0.7441   135.6848     0.6816     0.9893     0.3184     2.0034 
   1257.00     0.3060     0.1107     0.0010     0.1107     0.0653     0.2221     0.2371     2.4940   -34.5880    -3.1584     0.9691     1.0000   135.6947     0.6737     0.9899     0.3263     1.9985 
   1257.25     0.2860     0.1054     0.0010     0.1054     0.0690     0.2084     0.2273     2.5030   -34.0190    -2.6118     0.9687     1.0000   135.7047     0.6548     0.9892     0.3452     1.9994 
   1257.50     0.2830     0.0881     0.0010     0.0881     0.0700     0.2025     0.2251     2.5320   -33.3950    -2.0102     0.9636     0.8522   135.7146     0.6499     0.9873     0.3501     2.0129 
   1257.75     0.2670     0.0869     0.0010     0.0869     0.0707     0.1921     0.2302     2.5340   -32.7880    -1.4256     0.9559     0.7071   135.7245     0.6378     0.9840     0.3622     2.0042 
   1258.00     0.2700     0.0964     0.0010     0.0964     0.0699     0.1962     0.2375     2.5180   -32.1860    -0.8460     0.9452     0.6947   135.7344     0.6503     0.9808     0.3497     1.9947 
   1258.25     0.2900     0.1042     0.0010     0.1042     0.0646     0.2106     0.2375     2.5050   -31.5840    -0.2664     0.9380     0.7827   135.7443     0.6772     0.9800     0.3228     2.0002 
   1258.50     0.2920     0.1036     0.0010     0.1036     0.0641     0.2117     0.2311     2.5060   -31.3060    -0.0109     0.9365     0.7511   135.7542     0.6795     0.9796     0.3205     2.0008 
   1258.75     0.2860     0.1071     0.0010     0.1071     0.0652     0.2089     0.2263     2.5000   -31.3700    -0.0973     0.9389     0.6994   135.7641     0.6742     0.9801     0.3258     1.9975 
   1259.00     0.2940     0.1196     0.0010     0.1196     0.0626     0.2169     0.2365     2.4790   -31.9370    -0.6867     0.9328     0.7721   135.7741     0.6872     0.9790     0.3128     1.9898 
   1259.25     0.3200     0.1226     0.0010     0.1226     0.0566     0.2334     0.2366     2.4740   -32.6540    -1.4261     0.9081     0.8222   135.7840     0.7169     0.9740     0.2831     1.9928 
   1259.50     0.3080     0.1089     0.0010     0.1089     0.0569     0.2228     0.2229     2.4970   -33.3050    -2.0995     0.8917     0.7905   135.7939     0.7155     0.9692     0.2845     1.9937 
   1259.75     0.2830     0.1077     0.0010     0.1077     0.0603     0.2071     0.2104     2.4990   -33.8340    -2.6509     0.8819     0.6986   135.8038     0.6986     0.9644     0.3014     1.9730 
   1260.00     0.2570     0.1095     0.0030     0.1095     0.0766     0.1907     0.2093     2.4960   -34.0860    -2.9254     0.8603     0.6172   135.8137     0.6172     0.9263     0.3828     1.9476 
